the_geom,station_id,full_name,name,road_name,common_road_name,secondary_name,suburb,post_code,lga,rms_region,distance_to_intersection,intersection,road_number,link_number,mab_identifier,device_type,permanent_station,vehicle_classifier,road_on_type,road_classification_type,road_classification_admin,wgs84_latitude,wgs84_longitude
0101000020E61000004B1FBAA0BEE66240FD32182312ED40C0,01001,"Sydney Harbour Bridge, North of Hickson Road",Sydney Harbour Bridge,Bradfield Highway,Bradfield Highway,North of Hickson Road,Milsons Point,2061,Sydney,Sydney,260,Hickson Road,0000632,0020,NULL,Trafficorder Dual Tube Classifier,0,1,OnBridge,Highway,State,-33.852116,151.210770
0101000020E6100000BB253960D7E66240179CC1DF2FEE40C0,01003,"Sydney Harbour Tunnel, North of Cahill Expressway",Sydney Harbour Tunnel,Sydney Harbour Tunnel,"Sydney Harbour Tunnel.sydney Harbour Tunnel, Sydney",North of Cahill Expressway,Sydney,2000,Sydney,Sydney,100,Cahill Expressway,0006092,0010,M1,Trafficorder Loop Counter,1,0,InTunnel,,State,-33.860836,151.213791
0101000020E61000007730629F80E6624082397AFCDEEE40C0,01004,"Western Distributor, West of Sussex Street",Western Distributor,Western Distributor,"Western.western Distributor, Sydney",West of Sussex Street,Sydney,2000,Sydney,Sydney,20,Sussex Street,0000165,0018,NULL,Trafficorder Loop Counter,1,0,OnBridge,Distributor,State,-33.866180,151.203201
0101000020E6100000EA5DBC1FB7E66240982F2FC03EEE40C0,01011,"Cahill Expressway, East of Pitt Street",Cahill Expressway,Cahill Expressway,"Cahill.cahill Expressway, Sydney",East of Pitt Street,Sydney,2000,Sydney,Sydney,60,Pitt Street,0000592,0180,NULL,Trafficorder Loop Counter,1,0,OnBridge,Expressway,State,-33.861290,151.209854
0101000020E61000000F7EE2007AE66240AE62F19BC2F040C0,01323,"Ultimo Road, East of Darling Drive",Ultimo Road,Ultimo Road,Ultimo Road,East of Darling Drive,Haymarket,2000,Sydney,Sydney,40,Darling Drive,-10,-10,NULL,Trafficorder Tube Axlepair Counter,0,0,OnGround,Road,Local,-33.880939,151.202393
0101000020E610000090D8EE1E20E66240747E8AE3C0F140C0,02015,"City Road, East of Barff Road",City Road,City Road,City Road,East of Barff Road,Camperdown,2050,Sydney,Sydney,20,Barff Road,0000001,0020,A36,Trafficorder Loop Counter,1,0,OnGround,Road,State,-33.888699,151.191421
0101000020E6100000BE31040047E66240F2EA1C03B2F140C0,02037,"Cleveland Street, West of Beaumount Street",Cleveland Street,Cleveland Street,Cleveland Street,West of Beaumount Street,Darlington,2008,Sydney,Sydney,10,Beaumount Street,0000330,0140,NULL,Trafficorder Dual Tube Classifier,0,0,OnGround,Street,State,-33.888245,151.196167
0101000020E61000005C9198A086E66240C746205ED7F140C0,02038,"Cleveland Street, West of Pitt Street",Cleveland Street,Cleveland Street,"Cleveland.cleveland St, Redfern",West of Pitt Street,Surry Hills,2010,Sydney,Sydney,60,Pitt Street,0000330,0090,NULL,Trafficorder Loop Counter,1,0,OnGround,Street,State,-33.889385,151.203934
0101000020E61000005F97E13F5DE662403EEC8502B6F140C0,02056,"Abercrombie Street, North of Cleveland Street",Abercrombie Street,Abercrombie Street,Abercrombie Street,North of Cleveland Street,Chippendale,2008,Sydney,Sydney,30,Cleveland Street,0000594,0010,NULL,Trafficorder Dual Tube Classifier,0,0,OnGround,Street,State,-33.888367,151.198883
0101000020E6100000FBEAAA40ADE56240041E1840F8F240C0,02062,"Enmore Road, East of Bailey Street",Enmore Road,Enmore Road,"Enmore.enmore Rd, Newtown",East of Bailey Street,Newtown,2042,Marrickville,Sydney,60,Bailey Street,0000167,0010,A34,Trafficorder Loop Counter,1,0,OnGround,Road,State,-33.898201,151.177399
0101000020E6100000B9FE5D9F39E7624003CDE7DCEDF040C0,02083,"Glenmore Road, West of Flinton Street",Glenmore Road,Glenmore Road,Glenmore Road,West of Flinton Street,Paddington,2021,Woollahra,Sydney,40,Flinton Street,-10,-10,NULL,Trafficorder Tube Axlepair Counter,0,0,OnGround,Road,Local,-33.882259,151.225784
0101000020E61000008AC91B60E6E66240FB230C0396F040C0,02151,"Oxford Street, West of Palmer Street",Oxford Street,Oxford Street,Oxford Street,West of Palmer Street,Darlinghurst,2010,Sydney,Sydney,40,Palmer Street,0000172,0005,NULL,Trafficorder Tube Axlepair Counter,0,0,OnGround,Street,State,-33.879578,151.215622
0101000020E610000042CEFBFF38E662405D3123BC3DF040C0,02230,"Wattle Street, North of Quarry Street",Wattle Street,Wattle Street,Wattle Street,North of Quarry Street,Ultimo,2007,Sydney,Sydney,80,Quarry Street,0000594,0040,NULL,Trafficorder Dual Tube Classifier,0,0,OnGround,Street,State,-33.876884,151.194458
0101000020E6100000041E1840F8E66240C87C40A033F140C0,02243,"Eastern Distributor, South of Flinders Street",Eastern Distributor,Eastern Distributor,"Flinders.flinders St, Surry Hills",South of Flinders Street,Darlinghurst,2010,Sydney,Sydney,20,Flinders Street,0000171,0270,NULL,Trafficorder Dual Tube Classifier,1,0,InTunnel,Street,State,-33.884388,151.217804
0101000020E6100000FCDEA63F7BE66240CC61F71DC3F340C0,02245,"Botany Road, South of Mandible Street",Botany Road,Botany Road,Botany Road,South of Mandible Street,Alexandria,2015,Sydney,Sydney,110,Mandible Street,0000170,0220,NULL,Trafficorder Dual Tube Classifier,0,0,OnGround,Road,State,-33.904392,151.202545
0101000020E6100000A27A6B602BE66240BD344580D3EF40C0,02271,"Pyrmont Bridge Road, East of Wattle Street",Pyrmont Bridge Road,Pyrmont Bridge Road,Pyrmont Bridge Road,East of Wattle Street,Pyrmont,2009,Sydney,Sydney,50,Wattle Street,0000523,0040,NULL,Trafficorder Dual Tube Classifier,0,0,OnGround,Road,State,-33.873642,151.192795
0101000020E6100000C879FF1F27E662409A7D1EA33CF140C0,02273,"Broadway, East of Derwent Lane",Broadway,Broadway,Broadway,East of Derwent Lane,Glebe,2037,Sydney,Sydney,10,Derwent Lane,0000005,0050,A22,Trafficorder Dual Tube Classifier,1,0,OnGround,,State,-33.884663,151.192276
0101000020E6100000DC0F786080E662400BF148BC3CF140C0,02277,"Lee Street, North of Little Regent Street",Lee Street,Lee Street,"Lee.lee St, Sydney",North of Little Regent Street,Chippendale,2008,Sydney,Sydney,30,Little Regent Street,0000170,0295,NULL,Trafficorder Loop Counter,1,0,OnGround,Street,State,-33.884666,151.203171
0101000020E6100000E960FD9FC3E66240AA807B9E3FF340C0,02291,"Lachlan Street, West of Sam Sing Street",Lachlan Street,Lachlan Street,Lachlan Street,West of Sam Sing Street,Waterloo,2017,Sydney,Sydney,30,Sam Sing Street,0000528,0020,NULL,Trafficorder Dual Tube Classifier,0,0,OnGround,Street,State,-33.900379,151.211380
0101000020E610000015AB06616EE66240680932022AF440C0,02309,"O'riordan Street, North of Johnson Street",O'riordan Street,O'riordan Street,"O'riordan.o'riordan St, Beaconsfield",North of Johnson Street,Alexandria,2015,Sydney,Sydney,100,Johnson Street,0000658,0090,NULL,Trafficorder Loop Counter,1,0,OnGround,Street,State,-33.907532,151.200974
0101000020E61000001EC022BF7EE662404510E7E104F440C0,02312,"Botany Road, East of O'riordan Street",Botany Road,Botany Road,Botany Road,East of O'riordan Street,Alexandria,2015,Sydney,Sydney,80,O'riordan Street,0000170,0210,NULL,Trafficorder Dual Tube Classifier,0,0,OnGround,Road,State,-33.906399,151.202972
0101000020E61000004E2844C021E76240512E8D5F78F340C0,02359,"Anzac Parade, South of Alison Road",Anzac Parade,Anzac Parade,Anzac Parade,South of Alison Road,Kensington,2033,Randwick,Sydney,60,Alison Road,0000171,0210,NULL,Trafficorder Dual Tube Classifier,0,0,OnGround,Parade,State,-33.902111,151.222870
0101000020E61000005131CEDF84E66240D7851F9C4FF340C0,02362,"Mcevoy Street, West of Pitt Street",Mcevoy Street,Mcevoy Street,Mcevoy Street,West of Pitt Street,Waterloo,2017,Sydney,Sydney,60,Pitt Street,0000528,0045,NULL,Trafficorder Dual Tube Classifier,0,0,OnGround,Street,State,-33.900867,151.203720
0101000020E6100000271763601DE662403B38D89B18F440C0,02364,"Euston Road, North of Huntley Street",Euston Road,Euston Road,Euston Road,North of Huntley Street,Alexandria,2015,Sydney,Sydney,110,Huntley Street,0000528,0067,NULL,Trafficorder Dual Tube Classifier,0,0,OnGround,Road,State,-33.907001,151.191086
0101000020E6100000E23C9CC0F4E66240EB909BE106F240C0,02366,"South Dowling Street, East of Mort Street",South Dowling Street,South Dowling Street,South Dowling Street,East of Mort Street,Moore Park,2021,Sydney,Sydney,40,Mort Street,0000593,1080,NULL,Trafficorder Dual Tube Classifier,0,0,OnGround,Street,State,-33.890835,151.217377
0101000020E6100000E6577380E0E66240D9EBDD1FEFF140C0,02367,"Bourke Street, North of Parkham Street",Bourke Street,Bourke Street,Bourke Street,North of Parkham Street,Surry Hills,2010,Sydney,Sydney,10,Parkham Street,-10,-10,NULL,Trafficorder Tube Axlepair Counter,0,0,OnGround,Street,Local,-33.890110,151.214905
0101000020E610000092EA3BBFA8E66240A86E2EFEB6F140C0,02373,"Elizabeth Street, South of Dawson Street",Elizabeth Street,Elizabeth Street,Elizabeth Street,South of Dawson Street,Surry Hills,2010,Sydney,Sydney,40,Dawson Street,0007083,0070,NULL,Trafficorder Tube Axlepair Counter,0,0,OnGround,Street,Regional,-33.888397,151.208099
0101000020E6100000F296AB1F9BE662407E8AE3C0ABF140C0,02376,"Chalmers Street, South of Bedford Street",Chalmers Street,Chalmers Street,Chalmers Street,South of Bedford Street,Surry Hills,2010,Sydney,Sydney,60,Bedford Street,0007083,0070,NULL,Trafficorder Tube Axlepair Counter,0,0,OnGround,Street,Regional,-33.888054,151.206436
0101000020E6100000020F0C207CE662401E8A027D22F140C0,02377,"George Street, South of Little Regent Street",George Street,George Street,George Street,South of Little Regent Street,Ultimo,2007,Sydney,Sydney,10,Little Regent Street,0000005,0005,A22,Trafficorder Loop Counter,1,0,OnGround,Street,State,-33.883865,151.202652
0101000020E61000004F1F813F7CE662408EC9E2FE23F140C0,02377B,"George Street, North of Little Regent Street",George Street,George Street,"Railway Square.railway Sq, Sydney",North of Little Regent Street,NULL,NULL,NULL,NULL,10,Little Regent Street,0000005,0005,NULL,Trafficorder Loop Counter,1,0,OnGround,Street,State,-33.883911,151.202667
0101000020E6100000179F02603CE6624080B74082E2EF40C0,02379,"Western Distributor, West of Allen Street",Western Distributor,Western Distributor,"Western.western Distributor, Pyrmont",West of Allen Street,Pyrmont,2009,Sydney,Sydney,40,Allen Street,0000165,0045,NULL,Trafficorder Loop Counter,1,0,OnBridge,Distributor,State,-33.874100,151.194870
0101000020E61000000F63D2DF4BE66240594C6C3EAEEF40C0,02380,"Pyrmont Street, North of Murray Street",Pyrmont Street,Pyrmont Street,Pyrmont Street,North of Murray Street,Pyrmont,2009,Sydney,Sydney,70,Murray Street,0000165,0043,NULL,Trafficorder Loop Counter,1,0,OnGround,Street,State,-33.872505,151.196762
0101000020E6100000962364204FE662406170CD1DFDEF40C0,02381,"Western Distributor, East of Harris Street",Western Distributor,Western Distributor,"Western.western Distributor, Sydney",East of Harris Street,Ultimo,2007,Sydney,Sydney,20,Harris Street,0000165,0045,NULL,Trafficorder Loop Counter,1,0,OnGround,Distributor,State,-33.874912,151.197159
0101000020E610000018B49080D1E562408DEDB5A0F7F040C0,02382,"Bridge Road, West of Ross Street",Bridge Road,Bridge Road,Pyrmont Bridge Road,West of Ross Street,Forest Lodge,2037,Sydney,Sydney,60,Ross Street,0000523,0080,NULL,Trafficorder Tube Axlepair Counter,0,0,OnGround,Road,State,-33.882557,151.181824
0101000020E6100000105D50DF32E662403753211E89F140C0,02383,"City Road, North of Cleveland Street",City Road,City Road,City Road,North of Cleveland Street,Camperdown,2050,Sydney,Sydney,40,Cleveland Street,0000001,0010,A36,Trafficorder Dual Tube Classifier,0,0,OnGround,Road,State,-33.886997,151.193710
0101000020E6100000CE8B135F6DE662408E93C2BCC7F140C0,02384,"Cleveland Street, East of Woodburn Street",Cleveland Street,Cleveland Street,"Cleveland.cleveland St, Redfern",East of Woodburn Street,Redfern,2016,Sydney,Sydney,10,Woodburn Street,0000330,0120,NULL,Trafficorder Dual Tube Classifier,1,0,OnGround,Street,State,-33.888908,151.200851
0101000020E610000000FDBE7F73E66240FAB7CB7EDDF140C0,02385,"Regent Street, North of James Street",Regent Street,Regent Street,"Regent.regent St, Alexandria",North of James Street,Redfern,2016,Sydney,Sydney,10,James Street,0000170,0280,NULL,Trafficorder Dual Tube Classifier,1,0,OnGround,Street,State,-33.889572,151.201599
0101000020E6100000E2395B40E8E662404F7974232CF240C0,02386,"Cleveland Street, North of Little Cleveland Street",Cleveland Street,Cleveland Street,Cleveland Street,North of Little Cleveland Street,Redfern,2016,Sydney,Sydney,70,Little Cleveland Street,0000330,0020,NULL,Trafficorder Dual Tube Classifier,0,0,OnGround,Street,State,-33.891972,151.215851
0101000020E6100000838AAA5FE9E66240BF823463D1F240C0,02387,"South Dowling Street, North of Crescent Street",South Dowling Street,South Dowling Street,South Dowling Street,North of Crescent Street,Moore Park,2021,Sydney,Sydney,80,Crescent Street,0000593,1065,NULL,Trafficorder Tube Axlepair Counter,0,0,OnGround,Street,State,-33.897015,151.215988
0101000020E6100000ADA7565FDDE56240B72572C119F440C0,02389,"Sydney Park Road, East of King Street",Sydney Park Road,Sydney Park Road,Sydney Park Road,East of King Street,Erskineville,2043,Sydney,Sydney,110,King Street,0000528,0110,NULL,Trafficorder Dual Tube Classifier,0,0,OnGround,Road,State,-33.907036,151.183273
0101000020E6100000DBFAE93FEBE66240BD8BF7E3F6EF40C0,02393,"Crown Street, South of William Street",Crown Street,Crown Street,"Cross City Tunnel.cross City Tunnel Ramp Off To City North & Hbr., Sydney",South of William Street,Darlinghurst,2010,Sydney,Sydney,10,William Street,0006010,0040,NULL,Trafficorder Loop Counter,1,0,OnGround,Street,State,-33.874722,151.216217
0101000020E6100000B3EF8AE0FFE6624072C119FCFDF040C0,02394,"South Dowling Street, South of Rose Terrace",South Dowling Street,South Dowling Street,South Dowling Street,South of Rose Terrace,Darlinghurst,2010,Sydney,Sydney,40,Rose Terrace,0000593,2000,NULL,Trafficorder Tube Axlepair Counter,0,0,OnGround,Street,State,-33.882751,151.218735
0101000020E61000003FC571E055E662405E2EE23B31F140C0,02395,"Broadway, West of Wattle Street",Broadway,Broadway,Broadway,West of Wattle Street,Ultimo,2007,Sydney,Sydney,20,Wattle Street,0000005,0010,A22,Trafficorder Tube Axlepair Counter,0,0,OnGround,,State,-33.884315,151.197983
0101000020E6100000F19C2D20B4E562404371C79BFCF240C0,02396,"King Street, South of Newman Street",King Street,King Street,"King.king St, Newtown",South of Newman Street,Newtown,2042,Marrickville,Sydney,10,Newman Street,0000001,0120,A36,Trafficorder Loop Counter,1,0,OnGround,Street,State,-33.898334,151.178238
0101000020E6100000971DE21F36E662408A7269FCC2EF40C0,02400,"Western Distributor, South of Pyrmont Bridge Road",Western Distributor,Western Distributor,Western Distributor,South of Pyrmont Bridge Road,Pyrmont,2009,Sydney,Sydney,70,Pyrmont Bridge Road,0000165,0065,NULL,Trafficorder Dual Tube Classifier,0,0,OnBridge,Distributor,State,-33.873138,151.194107
0101000020E6100000C77F812040E66240E0D6DD3CD5EF40C0,02413,"Allen Street, East of Bulwara Road",Allen Street,Allen Street,"Allen.allen St, Pyrmont",East of Bulwara Road,Pyrmont,2009,Sydney,Sydney,20,Bulwara Road,0000170,0340,NULL,Trafficorder Loop Counter,1,0,OnGround,Street,State,-33.873695,151.195328
0101000020E61000000F63D2DF4BE66240594C6C3EAEEF40C0,02414,"Pyrmont Street, North of Murray Street",Pyrmont Street,Pyrmont Street,Pyrmont Street,North of Murray Street,Pyrmont,2009,Sydney,Sydney,70,Murray Street,0000165,0043,NULL,Trafficorder Loop Counter,1,0,OnGround,Street,State,-33.872505,151.196762
0101000020E6100000FF05820019E7624095D233BDC4F240C0,03014,"Anzac Parade, South of Cleveland Street",Anzac Parade,Anzac Parade,Anzac Parade,South of Cleveland Street,Moore Park,2021,Sydney,Sydney,100,Cleveland Street,0000171,0230,NULL,Trafficorder Dual Tube Classifier,0,0,OnGround,Parade,State,-33.896629,151.221802
0101000020E6100000566133C005E76240DA54DD239BF140C0,03018,"Eastern Distributor, South of Anzac Parade",Eastern Distributor,Eastern Distributor,"Anzac.anzac Pde, Surry Hills",South of Anzac Parade,Moore Park,2021,Sydney,Sydney,60,Anzac Parade,0000171,0250,NULL,Trafficorder Dual Tube Classifier,1,0,InTunnel,Parade,State,-33.887547,151.219452
0101000020E61000004B04AA7F10E76240A8E0F08288F240C0,03022,"Cleveland Street, West of Anzac Parade",Cleveland Street,Cleveland Street,"Cleveland.cleveland St, Moore Park",West of Anzac Parade,Moore Park,2021,Sydney,Sydney,60,Anzac Parade,0000330,0010,NULL,Trafficorder Loop Counter,1,0,OnGround,Street,State,-33.894791,151.220764
0101000020E6100000EF75525F16E7624039984D8061F340C0,03033,"Dacey Avenue, West of Alison Road",Dacey Avenue,Dacey Avenue,Dacey Avenue,West of Alison Road,Moore Park,2021,Sydney,Sydney,100,Alison Road,0000528,0010,NULL,Trafficorder Tube Axlepair Counter,0,0,OnGround,Avenue,State,-33.901413,151.221481
0101000020E610000087A8C29F611F63404DA1F31ABBBC3DC0,04002,"Pacific Highway, West of Four Mile Lane",Pacific Highway,Pacific Highway,Pacific Highway,West of Four Mile Lane,Clarenza,2460,Clarence Valley,Northern,230,Four Mile Lane,0000010,2670,A1,Trafficorder Tube Axlepair Counter,0,0,OnGround,Highway,State,-29.737230,152.980667
0101000020E61000009929ADBF251E63404EB857E6ADB23DC0,04004,"Craig Street, North of Bent Street",Craig Street,Craig Street,"Bent.bent Street, Grafton",North of Bent Street,South Grafton,2460,Clarence Valley,Northern,230,Bent Street,0000083,0020,B91,Trafficorder Loop Counter,1,0,OnBridge,Street,State,-29.697966,152.942108
0101000020E6100000A568E55EE030634035D4282499313CC0,04010,"Pacific Motorway, South of Dry Dock Road",Pacific Motorway,Pacific Motorway,"Pacific.pacific Highway, Tweed Heads South",South of Dry Dock Road,Tweed Heads South,2486,Tweed,Northern,110,Dry Dock Road,0000010,3522,M1,Trafficorder Loop Counter,1,0,OnGround,Motorway,State,-28.193743,153.527389
0101000020E61000003BA759A05D1F6340E90B21E7FDAB3DC0,04021,"Pacific Highway, South of Greens Lane",Pacific Highway,Pacific Highway,Pacific Highway,South of Greens Lane,Clarenza,2460,Clarence Valley,Northern,370,Greens Lane,0000010,2760,A1,Trafficorder Tube Axlepair Counter,0,1,OnBridge,Highway,State,-29.671843,152.980179
0101000020E610000075392520A622634042E90B21E7913DC0,04023,"Pacific Highway, East of Clarence Street",Pacific Highway,Pacific Highway,Pacific Highway,East of Clarence Street,Cowper,2460,Clarence Valley,Northern,300,Clarence Street,0000010,2795,A1,Trafficorder Tube Axlepair Counter,0,1,OnGround,Highway,State,-29.569933,153.082779
0101000020E610000062BB7B80EE2763403EE94482A96E3DC0,04026,"Yamba Road, East of James Creek Road",Yamba Road,Yamba Road,Lawrence-Yamba Road,East of James Creek Road,James Creek,2463,Clarence Valley,Northern,380,James Creek Road,0000152,0205,NULL,Trafficorder Tube Axlepair Counter,0,1,OnGround,Road,Regional,-29.432274,153.247864
0101000020E610000001158E20152A63409D83674293D03CC0,04030,"Ballina Road, East of Bruxner Crescent",Ballina Road,Ballina Road,Bruxner Highway,East of Bruxner Crescent,Goonellabah,2480,Lismore,Northern,10,Bruxner Crescent,0000016,0150,B60,Trafficorder Tube Axlepair Counter,0,0,OnGround,Highway,State,-28.814747,153.315079
0101000020E6100000D7D9907F662A6340058BC3995FD13CC0,04032,"Ballina Road, West of Sillar Avenue",Ballina Road,Ballina Road,Bruxner Highway,West of Sillar Avenue,Goonellabah,2480,Lismore,Northern,80,Sillar Avenue,0000016,0145,B60,Trafficorder Tube Axlepair Counter,0,0,OnGround,Highway,State,-28.817865,153.325012
0101000020E61000007521567F042F6340E38DCC237FDC3CC0,04038,"Bruxner Highway, West of Duck Creek Mountain Road",Bruxner Highway,Bruxner Highway,Bruxner Highway,West of Duck Creek Mountain Road,Alstonville,2477,Ballina,Northern,430,Duck Creek Mountain Road,0000016,0101,B60,Trafficorder Tube Axlepair Counter,0,1,OnGround,Highway,State,-28.861315,153.469299
0101000020E610000068CA4E3F283063407993DFA293DD3CC0,04039,"Pacific Highway, East of Pimlico Road",Pacific Highway,Pacific Highway,Pacific Highway,East of Pimlico Road,West Ballina,2478,Ballina,Northern,780,Pimlico Road,0000010,3125,NULL,Trafficorder Tube Axlepair Counter,0,1,OnGround,Highway,State,-28.865534,153.504913
0101000020E610000010751F80D4306340F65D11FC6FDD3CC0,04040,"River Street, West of Burns Point Ferry Road",River Street,River Street,River Street,West of Burns Point Ferry Road,West Ballina,2478,Ballina,Northern,280,Burns Point Ferry Road,0000695,3110,NULL,Trafficorder Dual Tube Classifier,0,1,OnGround,Street,Local,-28.864990,153.525940
0101000020E6100000D4BB783F6E2F63403E95D39E92B73CC0,04045,"Lismore Road, West of Binna Burra Road",Lismore Road,Lismore Road,Lismore - Bangalow Road,West of Binna Burra Road,Nashua,2479,Byron,Northern,1110,Binna Burra Road,0000065,0102,B62,Trafficorder Tube Axlepair Counter,0,0,OnGround,Road,State,-28.717081,153.482208
0101000020E6100000566133C0052B634004C93B8732C43CC0,04055,"Coleman Street, South of Withers Street",Coleman Street,Coleman Street,Lismore - Bangalow Road,South of Withers Street,Bexhill,2480,Lismore,Northern,10,Withers Street,0000065,0045,B62,Trafficorder Tube Axlepair Counter,0,1,OnGround,Road,State,-28.766396,153.344452
0101000020E610000044E048A0C1316340DD9733DB15DA3CC0,04058,"Tamarind Drive, South of Ferngrove Drive",Tamarind Drive,Tamarind Drive,Tamarind Drive,South of Ferngrove Drive,Ballina,2478,Ballina,Northern,110,Ferngrove Drive,0000695,3140,NULL,Trafficorder Tube Axlepair Counter,0,0,OnGround,Drive,Local,-28.851896,153.554886
0101000020E6100000CC9A58E02B316340761BD47E6BC33CC0,04060,"Pacific Highway, South of Martins Lane",Pacific Highway,Pacific Highway,Pacific Highway,South of Martins Lane,Knockrow,2479,Ballina,Northern,390,Martins Lane,0000010,3171,NULL,Trafficorder Tube Axlepair Counter,0,1,OnGround,Highway,State,-28.763359,153.536606
0101000020E6100000EA5DBC1FB7306340F5F411F8C3AF3CC0,04065,"Granuaille Road, South of Leslie Street",Granuaille Road,Granuaille Road,Granuaille Street,South of Leslie Street,Bangalow,2479,Byron,Northern,10,Leslie Street,0000065,0110,B62,Trafficorder Tube Axlepair Counter,0,0,OnGround,Street,State,-28.686584,153.522354
0101000020E61000009C3237DF88316340596DFE5F75A43CC0,04066,"Pacific Highway, West of Plantation Drive",Pacific Highway,Pacific Highway,Pacific Highway,West of Plantation Drive,Ewingsdale,2481,Byron,Northern,430,Plantation Drive,0000010,3228,B62,Trafficorder Tube Axlepair Counter,0,1,OnGround,Highway,State,-28.642416,153.547958
0101000020E61000002C4487C0913163403562669FC7A03CC0,04068,"Pacific Highway, South of Johnston Lane",Pacific Highway,Pacific Highway,Pacific Highway,South of Johnston Lane,Ewingsdale,2481,Byron,Northern,200,Johnston Lane,0000010,3231,A1,Trafficorder Tube Axlepair Counter,0,0,OnGround,Highway,State,-28.628046,153.549042
0101000020E6100000982F2FC03E2F6340F3C64961DE6F3CC0,04078,"Tweed Valley Way, North of Dignan Street",Tweed Valley Way,Tweed Valley Way,Tweed Valley Way,North of Dignan Street,Burringbar,2483,Tweed,Northern,210,Dignan Street,0000679,3310,NULL,Trafficorder Tube Axlepair Counter,0,1,OnGround,Way,Regional,-28.436987,153.476410
0101000020E61000004E0AF31E67316340AB402D060F333CC0,04093,"Minjungbal Drive, North of Blundell Boulevard",Minjungbal Drive,Minjungbal Drive,"Mungungbal.mungungbal Drive, Tweed Heads South",North of Blundell Boulevard,Tweed Heads South,2486,Tweed,Northern,70,Blundell Boulevard,0007733,0010,NULL,Trafficorder Loop Counter,1,0,OnGround,Drive,Regional,-28.199448,153.543838
0101000020E610000048FE60E039286340787E5182FEDE3CC0,04095,"Bruxner Highway, South of Wharf Road",Bruxner Highway,Bruxner Highway,Bruxner Highway,South of Wharf Road,South Gundurimba,2480,Lismore,Northern,40,Wharf Road,0000016,0210,B60,Trafficorder Tube Axlepair Counter,0,1,OnGround,Highway,State,-28.871071,153.257065
0101000020E6100000D1CDFE40392663409850C1E105E13CC0,04098,"Bruxner Highway, North of Schneiders Lane",Bruxner Highway,Bruxner Highway,Bruxner Highway,North of Schneiders Lane,Mckees Hill,2480,Lismore,Northern,100,Schneiders Lane,0000016,0220,B60,Trafficorder Tube Axlepair Counter,0,1,OnGround,Highway,State,-28.878996,153.194489
0101000020E6100000D8F15F2008186340E9482EFF21E53CC0,04109,"Bruxner Highway, East of Bulmers Road",Bruxner Highway,Bruxner Highway,Bruxner Highway,East of Bulmers Road,Mummulgum,2469,Kyogle,Northern,1100,Bulmers Road,0000016,0330,B60,Trafficorder Tube Axlepair Counter,0,1,OnGround,Highway,State,-28.895050,152.750992
0101000020E6100000E2218C9FC62E63405419C6DD20FE3CC0,04116,"Pacific Highway, North of Boundary Creek Road",Pacific Highway,Pacific Highway,Pacific Highway,North of Boundary Creek Road,Broadwater,2472,Richmond Valley,Northern,0,Boundary Creek Road,0000010,3080,A1,Trafficorder Tube Axlepair Counter,0,1,OnGround,Highway,State,-28.992689,153.461746
0101000020E61000002F35423FD3276340E9F17B9BFE583DC0,04123,"Pacific Highway, North of Banana Road",Pacific Highway,Pacific Highway,Pacific Highway,North of Banana Road,Woombah,2469,Clarence Valley,Northern,270,Banana Road,0000010,2926,A1,Trafficorder Tube Axlepair Counter,0,1,OnGround,Highway,State,-29.347635,153.244537
0101000020E61000000E4B033F2A206340DDCF29C8CF723EC0,04141,"Pacific Highway, North of North Bank Road",Pacific Highway,Pacific Highway,Pacific Highway,North of North Bank Road,Raleigh,2454,Bellingen,Northern,470,North Bank Road,0000010,2462,A1,Trafficorder Tube Axlepair Counter,0,0,OnGround,Highway,State,-30.448483,153.005157
0101000020E6100000DF18028063226340D769A4A5F2563EC0,04144,"Pacific Highway, East of Bruce King Drive",Pacific Highway,Pacific Highway,Pacific Highway,East of Bruce King Drive,Boambee East,2452,Coffs Harbour,Northern,410,Bruce King Drive,0000010,2476,A1,Trafficorder Tube Axlepair Counter,0,0,OnGround,Highway,State,-30.339640,153.074646
0101000020E61000007218CC5FA1226340F0181EFB59543EC0,04146,"Pacific Highway, North of Sawtell Road",Pacific Highway,Pacific Highway,Pacific Highway,North of Sawtell Road,Boambee,2450,Coffs Harbour,Northern,720,Sawtell Road,0000010,2485,A1,Trafficorder Tube Axlepair Counter,0,0,OnGround,Highway,State,-30.329498,153.082199
0101000020E6100000D5EB1681B12463405E30B8E68E363EC0,04150,"Pacific Highway, South of Maccues Road",Pacific Highway,Pacific Highway,Pacific Highway,South of Maccues Road,Sapphire Beach,2450,Coffs Harbour,Northern,510,Maccues Road,0000010,2573,A1,Trafficorder Tube Axlepair Counter,0,1,OnGround,Highway,State,-30.213118,153.146668
0101000020E6100000A67D737FF51B6340253B3602F1AE3DC0,04153,"Gwydir Highway, East of Old Glen Innes Road",Gwydir Highway,Gwydir Highway,Gwydir Highway,East of Old Glen Innes Road,Waterview Heights,2460,Clarence Valley,Northern,570,Old Glen Innes Road,0000012,0140,B76,Trafficorder Tube Axlepair Counter,0,1,OnGround,Highway,State,-29.683365,152.873718
0101000020E61000008099EFE0A73063402DD2C43BC0DB3CC0,04162,"Paperbark Close, South of Teven Road",Paperbark Close,Paperbark Close,Paperbark Close,South of Teven Road,West Ballina,2478,Ballina,Northern,90,Teven Road,0230146,0015,NULL,Trafficorder Tube Axlepair Counter,0,1,OnGround,Close,Local,-28.858402,153.520493
0101000020E6100000368FC360FE206340465ED6C402D73CC0,04164,"Summerland Way, West of Hillcrest Lane",Summerland Way,Summerland Way,Queensland Road,West of Hillcrest Lane,Casino,2470,Richmond Valley,Northern,60,Hillcrest Lane,0000083,0330,B91,Trafficorder Tube Axlepair Counter,0,1,OnGround,Road,State,-28.839886,153.031052
0101000020E6100000BD3786006021634040DAFF006BE13CC0,04165,"Summerland Way, South of Griffiths Avenue",Summerland Way,Summerland Way,Summerland Way,South of Griffiths Avenue,Casino,2470,Richmond Valley,Northern,90,Griffiths Avenue,0000083,0210,B91,Trafficorder Tube Axlepair Counter,0,1,OnGround,Way,State,-28.880539,153.042969
0101000020E6100000BB0A293FA9336340DDB419A721AA3CC0,04167,"Bangalow Road, South of Ironbark Avenue",Bangalow Road,Bangalow Road,Bangalow Road,South of Ironbark Avenue,Byron Bay,2481,Byron,Northern,120,Ironbark Avenue,0000545,0091,NULL,Trafficorder Tube Axlepair Counter,0,0,OnGround,Road,Regional,-28.664576,153.614410
0101000020E6100000F9DB9E20312263404432E4D87AEA3DC0,04168,"Pacific Highway, South of Luthers Road",Pacific Highway,Pacific Highway,Pacific Highway,South of Luthers Road,Halfway Creek,2460,Clarence Valley,Northern,90,Luthers Road,0000010,2650,A1,Trafficorder Tube Axlepair Counter,0,1,OnBridge,Highway,State,-29.915937,153.068497
0101000020E6100000E869C020E91D6340D9E89C9FE29C3DC0,04170,"Summerland Way, South of Red Lane",Summerland Way,Summerland Way,Summerland Way,South of Red Lane,Koolkhan,2460,Clarence Valley,Northern,180,Red Lane,0000083,0130,B91,Trafficorder Tube Axlepair Counter,0,1,OnGround,Way,State,-29.612833,152.934708
0101000020E61000003BAA9A20EA1D634032772D211FC43DC0,04185,"Orara Way, South of Armidale Road",Orara Way,Orara Way,Orara Way,South of Armidale Road,Braunstone,2460,Clarence Valley,Northern,670,Armidale Road,0000151,0130,NULL,Trafficorder Tube Axlepair Counter,0,1,OnGround,Way,Regional,-29.766100,152.934830
0101000020E6100000B610E4A004206340ED2DE57CB1A33CC0,04197,"Summerland Way, South of Boorabee Street",Summerland Way,Summerland Way,Summerland Way,South of Boorabee Street,Kyogle,2474,Kyogle,Northern,60,Boorabee Street,0000083,0360,B91,Trafficorder Tube Axlepair Counter,0,1,OnGround,Way,State,-28.639427,153.000565
0101000020E61000003DB9A640E61E634021E7FD7F9C843CC0,04199,"Summerland Way, South of Kunghur Street",Summerland Way,Summerland Way,Summerland Way,South of Kunghur Street,Wiangaree,2474,Kyogle,Northern,540,Kunghur Street,0000083,0410,B91,Trafficorder Tube Axlepair Counter,0,1,OnGround,Way,State,-28.518013,152.965607
0101000020E6100000CFBBB1A0B02463409FB0C403CACA3CC0,04201,"Kyogle Road, East of Bentley Road",Kyogle Road,Kyogle Road,Bentley Road,East of Bentley Road,Fernside,2480,Lismore,Northern,20,Bentley Road,0000544,0030,NULL,Trafficorder Tube Axlepair Counter,0,1,OnGround,Road,Regional,-28.792145,153.146561
0101000020E61000008EEA74206B2963400403081F4A283DC0,04233,"Pacific Highway, West of Swan Bay-New Italy Road",Pacific Highway,Pacific Highway,Pacific Highway,West of Swan Bay-New Italy Road,New Italy,2472,Richmond Valley,Northern,690,Swan Bay-New Italy Road,0000010,2950,A1,Trafficorder Tube Axlepair Counter,0,1,OnGround,Highway,State,-29.157381,153.294327
0101000020E6100000A1681EC0A223634021CCED5EEE4B3EC0,04249,"Grafton Street, North of Park Avenue Lane",Grafton Street,Grafton Street,Grafton Street,North of Park Avenue Lane,Coffs Harbour,2450,Coffs Harbour,Northern,10,Park Avenue Lane,0000010,2510,A1,Trafficorder Tube Axlepair Counter,0,0,OnGround,Street,State,-30.296606,153.113617
0101000020E610000021EA3E00A923634019AE0E80B84B3EC0,04250,"Grafton Street, West of Vernon Street",Grafton Street,Grafton Street,Grafton Street,West of Vernon Street,Coffs Harbour,2450,Coffs Harbour,Northern,30,Vernon Street,0000010,2520,A1,Trafficorder Tube Axlepair Counter,0,0,OnGround,Street,State,-30.295784,153.114380
0101000020E6100000F4A5B73F17266340F14BFDBCA91C3EC0,04251,"Solitary Islands Way, South of Knox Street",Solitary Islands Way,Solitary Islands Way,Pacific Highway,South of Knox Street,Woolgoolga,2456,Coffs Harbour,Northern,100,Knox Street,0000010,2600,NULL,Trafficorder Tube Axlepair Counter,0,0,OnGround,Highway,State,-30.111965,153.190338
0101000020E61000009B38B9DF211E6340E89FE06245B53DC0,04254,"Schwinghammer Street, South of Charles Street",Schwinghammer Street,Schwinghammer Street,Pacific Highway,South of Charles Street,South Grafton,2460,Clarence Valley,Northern,70,Charles Street,0000010,2700,A1,Trafficorder Tube Axlepair Counter,0,1,OnGround,Highway,State,-29.708090,152.941635
0101000020E6100000E73922DF251E6340D1B2EE1F0BB53DC0,04255,"Charles Street, West of Spring Street",Charles Street,Charles Street,Charles Street,West of Spring Street,South Grafton,2460,Clarence Valley,Northern,40,Spring Street,0000010,2740,A1,Trafficorder Tube Axlepair Counter,0,1,OnGround,Street,State,-29.707201,152.942123
0101000020E6100000730F09DFFB2A63406B813D2652123DC0,04261,"River Street, West of Duke Street",River Street,River Street,River Street,West of Duke Street,Woodburn,2472,Richmond Valley,Northern,80,Duke Street,0000010,3020,A1,Trafficorder Tube Axlepair Counter,0,0,OnGround,Street,State,-29.071566,153.343246
0101000020E6100000C24F1C40BF2F63407AC4E8B985DE3CC0,04264,"Pacific Highway, West of Pimlico Road",Pacific Highway,Pacific Highway,Pacific Highway,West of Pimlico Road,Pimlico,2478,Ballina,Northern,540,Pimlico Road,0000010,3090,A1,Trafficorder Tube Axlepair Counter,0,0,OnGround,Highway,State,-28.869228,153.492096
0101000020E6100000C64FE3DE7C316340A88C7F9F718D3CC0,04270,"Old Pacific Highway, South of Access Road",Old Pacific Highway,Old Pacific Highway,"Brunswick Valley.brunswick Sth Interchange To Brunswick Nth Interchange, Brunswick",South of Access Road,Brunswick Heads,2483,Byron,Northern,110,Access Road,0000689,0030,NULL,Trafficorder Loop Counter,1,0,OnGround,Way,Regional,-28.552515,153.546493
0101000020E6100000A471A8DF051E63400C022B8716B53DC0,04276,"Ryan Street, East of Bligh Street",Ryan Street,Ryan Street,Charles Street,East of Bligh Street,South Grafton,2460,Clarence Valley,Northern,70,Bligh Street,0000012,0110,B76,Trafficorder Tube Axlepair Counter,0,0,OnGround,Street,State,-29.707375,152.938217
0101000020E61000007C6308008E19634003B2D7BB3FA63DC0,04277,"Gwydir Highway, North of Bristol Arms Road",Gwydir Highway,Gwydir Highway,Gwydir Highway,North of Bristol Arms Road,Ramornie,2460,Clarence Valley,Northern,880,Bristol Arms Road,0000012,0150,B76,Trafficorder Tube Axlepair Counter,0,1,OnBridge,Highway,State,-29.649410,152.798584
0101000020E610000086AB0320EE2863405DFE43FAEDCF3CC0,04283,"Dawson Street, South of Hampton Street",Dawson Street,Dawson Street,Dawson Street,South of Hampton Street,Lismore,2480,Lismore,Northern,40,Hampton Street,0000065,0011,B62,Trafficorder Tube Axlepair Counter,0,0,OnGround,Street,State,-28.812225,153.279068
0101000020E61000007F87A2409F286340EF02250516D03CC0,04286,"Elliott Road, West of Victoria Street",Elliott Road,Elliott Road,Bruxner Highway,West of Victoria Street,East Lismore,2480,Lismore,Northern,110,Victoria Street,0000016,0185,B60,Trafficorder Tube Axlepair Counter,0,0,OnBridge,Highway,State,-28.812836,153.269440
0101000020E6100000D7DF12807F1363406669A7E672633CC0,04296,"Unumgar Street, West of Roseberry Street",Unumgar Street,Unumgar Street,Unumgar Street,West of Roseberry Street,Woodenbong,2476,Kyogle,Northern,30,Roseberry Street,0000622,0180,NULL,Trafficorder Tube Axlepair Counter,0,0,OnGround,Street,Regional,-28.388472,152.609314
0101000020E61000000E6954E064166340CCD4247843563CC0,04298,"Summerland Way, West of Mount Lindesay Road",Summerland Way,Summerland Way,Summerland Way,West of Mount Lindesay Road,Dairy Flat,2474,Kyogle,Northern,250,Mount Lindesay Road,0000083,0450,NULL,Trafficorder Dual Tube Classifier,0,1,OnGround,Way,State,-28.336967,152.699814
0101000020E6100000514CDE00B3306340F030ED9BFBAF3CC0,04301,"Lismore Road, East of Robinson Street",Lismore Road,Lismore Road,Lismore - Bangalow Road,East of Robinson Street,Bangalow,2479,Byron,Northern,10,Robinson Street,0000065,0102,B62,Trafficorder Tube Axlepair Counter,0,1,OnGround,Road,State,-28.687433,153.521851
0101000020E61000001EC6A4BF172963407EE19524CFCD3CC0,04303,"Dawson Street, North of Leycester Street",Dawson Street,Dawson Street,Dawson Street,North of Leycester Street,Lismore,2480,Lismore,Northern,100,Leycester Street,0000065,0021,B62,Trafficorder Tube Axlepair Counter,0,0,OnGround,Street,State,-28.803942,153.284149
0101000020E610000077483140A21D6340317A6EA12BC53DC0,04307,"Armidale Road, South of Orara Way",Armidale Road,Armidale Road,Armidale Road,South of Orara Way,Elland,2460,Clarence Valley,Northern,980,Orara Way,0000074,0095,NULL,Trafficorder Tube Axlepair Counter,0,1,OnGround,Road,Regional,-29.770197,152.926056
0101000020E6100000C66D3480371E6340253E7782FD773EC0,04311,"Waterfall Way, East of Tyson Street",Waterfall Way,Waterfall Way,Waterfall Way,East of Tyson Street,Fernmount,2454,Bellingen,Northern,220,Tyson Street,0000076,0011,B78,Trafficorder Dual Tube Classifier,0,1,OnGround,Way,State,-30.468712,152.944275
0101000020E6100000B4E386DF4D196340B7B6F0BC546C3EC0,04315,"Waterfall Way, East of Darkwood Road",Waterfall Way,Waterfall Way,Waterfall Way,East of Darkwood Road,Thora,2454,Bellingen,Northern,1200,Darkwood Road,0000076,0050,B78,Trafficorder Tube Axlepair Counter,0,1,OnGround,Way,State,-30.423168,152.790756
0101000020E610000045D4449F0F1E634080457EFD10AF3DC0,04327,"Prince Street, North of Bawden Street",Prince Street,Prince Street,Prince Street,North of Bawden Street,Grafton,2460,Clarence Valley,Northern,20,Bawden Street,0000083,0070,B91,Trafficorder Tube Axlepair Counter,0,0,OnGround,Street,State,-29.683853,152.939407
0101000020E6100000A46E675FF91D6340CE33F6251BAB3DC0,04331,"Summerland Way, North of Turf Street",Summerland Way,Summerland Way,Richmond Road,North of Turf Street,Grafton,2460,Clarence Valley,Northern,40,Turf Street,0000083,0110,B91,Trafficorder Tube Axlepair Counter,0,1,OnGround,Road,State,-29.668383,152.936691
0101000020E6100000B1DD3D4077216340CDACA580B4DB3CC0,04338,"Johnston Street, East of West Street",Johnston Street,Johnston Street,Johnston Street,East of West Street,Casino,2470,Richmond Valley,Northern,80,West Street,0000083,0301,B91,Trafficorder Tube Axlepair Counter,0,0,OnGround,Street,State,-28.858223,153.045807
0101000020E6100000A46E675FF91F6340D13C80457EAD3CC0,04341,"Summerland Way, North of Omagh Road",Summerland Way,Summerland Way,Summerland Way,North of Omagh Road,Cedar Point,2474,Kyogle,Northern,90,Omagh Road,0000083,0360,B91,Trafficorder Tube Axlepair Counter,0,1,OnGround,Way,State,-28.677708,152.999191
0101000020E6100000A3772AE01E206340BA68C878949E3CC0,04342,"Summerland Way, North of Geneva Street",Summerland Way,Summerland Way,Summerland Way,North of Geneva Street,Kyogle,2474,Kyogle,Northern,50,Geneva Street,0000083,0380,B91,Trafficorder Tube Axlepair Counter,0,0,OnGround,Way,State,-28.619453,153.003769
0101000020E61000004E2B8540AE25634011397D3D5F833CC0,04367,"Kyogle Road, North of Coalmine Road",Kyogle Road,Kyogle Road,Kyogle Road,North of Coalmine Road,Mount Burrell,2484,Tweed,Northern,230,Coalmine Road,0000141,0040,NULL,Trafficorder Tube Axlepair Counter,0,1,OnGround,Road,Regional,-28.513172,153.177521
0101000020E61000005D8B16A0ED28634058AA0B7899093DC0,04392,"Woodburn-Coraki Road, West of Purseys Road",Woodburn-Coraki Road,Woodburn-Coraki Road,Woodburn-Coraki Road,West of Purseys Road,Bungawalbin,2469,Richmond Valley,Northern,60,Purseys Road,0000145,0020,NULL,Trafficorder Tube Axlepair Counter,0,1,OnGround,Road,Regional,-29.037498,153.279007
0101000020E61000008EEA74206B2663406B82A8FB007C3DC0,04400,"Pacific Highway, North of Causleys Lane",Pacific Highway,Pacific Highway,Pacific Highway,North of Causleys Lane,Gulmarrad,2463,Clarence Valley,Northern,460,Causleys Lane,0000010,2835,A1,Trafficorder Tube Axlepair Counter,0,1,OnGround,Highway,State,-29.484390,153.200577
0101000020E6100000950B957F2D286340EE27637C98E13CC0,04404,"Coraki Road, South of Bruxner Highway",Coraki Road,Coraki Road,Coraki-South Gundurimbah Road,South of Bruxner Highway,South Gundurimba,2480,Lismore,Northern,620,Bruxner Highway,0000148,0020,NULL,Trafficorder Tube Axlepair Counter,0,1,OnGround,Road,Regional,-28.881233,153.255554
0101000020E610000087A8C29F6119634031992A1895943DC0,04413,"Clarence Way, West of Rogan Bridge Road",Clarence Way,Clarence Way,Clarence Way,West of Rogan Bridge Road,Copmanhurst,2460,Clarence Valley,Northern,290,Rogan Bridge Road,0000150,0030,NULL,Trafficorder Tube Axlepair Counter,0,1,OnGround,Way,Regional,-29.580400,152.793167
0101000020E6100000F2B4FCC055236340F032C346594B3EC0,04421,"West High Street, East of Coramba Road",West High Street,West High Street,West High Street,East of Coramba Road,Coffs Harbour,2450,Coffs Harbour,Northern,130,Coramba Road,0000151,0010,NULL,Trafficorder Tube Axlepair Counter,0,0,OnGround,Street,Regional,-30.294331,153.104218
0101000020E61000004CFBE6FE6A21634059130B7C453F3EC0,04422,"Coramba Road, South of Convincing Ground Road",Coramba Road,Coramba Road,Coramba Road,South of Convincing Ground Road,Karangi,2450,Coffs Harbour,Northern,340,Convincing Ground Road,0000151,0040,NULL,Trafficorder Tube Axlepair Counter,0,1,OnGround,Road,Regional,-30.247154,153.044311
0101000020E610000054556820162B6340685A626534123DC0,04437,"Alfred Street, North of Redwood Lane",Alfred Street,Alfred Street,Alfred Street,North of Redwood Lane,Woodburn,2472,Richmond Valley,Northern,30,Redwood Lane,0000153,0010,NULL,Trafficorder Tube Axlepair Counter,0,0,OnGround,Street,Regional,-29.071112,153.346451
0101000020E6100000388600E0D8306340CEE0EF17B3913CC0,04459,"Mullumbimby Road, South of The Saddle Road",Mullumbimby Road,Mullumbimby Road,Mullumbimby Road,South of The Saddle Road,Myocum,2481,Byron,Northern,130,The Saddle Road,0000463,0010,NULL,Trafficorder Tube Axlepair Counter,0,1,OnGround,Road,Regional,-28.569139,153.526474
0101000020E6100000DE21C50089216340CDE67118CCDB3CC0,04547,"Johnston Street, West of Mortimer Lane",Johnston Street,Johnston Street,Bruxner Highway,West of Mortimer Lane,Casino,2470,Richmond Valley,Northern,70,Mortimer Lane,0000016,0240,B60,Trafficorder Tube Axlepair Counter,0,0,OnGround,Highway,State,-28.858583,153.047974
0101000020E6100000000341800C1E63405BCEA5B8AA7C3CC0,04596,"Risk Road, North of Summerland Way",Risk Road,Risk Road,Risk Road,North of Summerland Way,The Risk,2474,Kyogle,Northern,630,Summerland Way,-10,-10,NULL,Trafficorder Tube Axlepair Counter,0,1,OnGround,Road,Local,-28.486980,152.939026
0101000020E61000000B5D89407527634013F3ACA4156F3DC0,04630,"Yamba Road, West of Pacific Highway",Yamba Road,Yamba Road,Lawrence-Yamba Road,West of Pacific Highway,Maclean,2463,Clarence Valley,Northern,740,Pacific Highway,0000152,0175,NULL,Trafficorder Tube Axlepair Counter,0,1,OnGround,Road,Regional,-29.433924,153.233063
0101000020E61000009D47C5FF9D27634095BA641C23713DC0,04632,"Pacific Highway, South of Yamba Road",Pacific Highway,Pacific Highway,Pacific Highway,South of Yamba Road,Maclean,2463,Clarence Valley,Northern,1000,Yamba Road,0000010,2856,A1,Trafficorder Dual Tube Classifier,0,1,OnGround,Highway,State,-29.441942,153.238037
0101000020E6100000B0CBF09FEE316340168733BF9ADB3CC0,04639,"Kerr Street, South of Bangalow Road",Kerr Street,Kerr Street,Kerr Street,South of Bangalow Road,Ballina,2478,Ballina,Northern,120,Bangalow Road,0000695,3130,NULL,Trafficorder Tube Axlepair Counter,0,0,OnGround,Street,Local,-28.857830,153.560379
0101000020E61000000000000000206340A1DB4B1AA39D3CC0,04647,"Summerland Way, North of Anzac Drive",Summerland Way,Summerland Way,Summerland Way,North of Anzac Drive,New Park,2474,Kyogle,Northern,250,Anzac Drive,0000083,0399,B91,Trafficorder Tube Axlepair Counter,0,1,OnGround,Way,State,-28.615770,153.000000
0101000020E6100000C3499A3FA63263401536035C90C93CC0,04660,"Byron Bay Road, North of Byron Street",Byron Bay Road,Byron Bay Road,Byron Bay Road,North of Byron Street,Lennox Head,2478,Ballina,Northern,370,Byron Street,0000545,0071,NULL,Trafficorder Tube Axlepair Counter,0,1,OnGround,Road,Regional,-28.787359,153.582794
0101000020E610000087A2409F482B6340C9C859D8D3C23CC0,04662,"Bangalow Road, East of Unara Road",Bangalow Road,Bangalow Road,Lismore - Bangalow Road,East of Unara Road,Bexhill,2480,Lismore,Northern,20,Unara Road,0000065,0075,B62,Trafficorder Tube Axlepair Counter,0,1,OnGround,Road,State,-28.761045,153.352615
0101000020E6100000B70DA320F82F6340954737C2A2463CC0,04663,"Tweed Valley Way, East of Leddays Creek Road",Tweed Valley Way,Tweed Valley Way,Tweed Valley Way,East of Leddays Creek Road,Stotts Creek,2487,Tweed,Northern,80,Leddays Creek Road,0000679,3360,NULL,Trafficorder Tube Axlepair Counter,0,1,OnGround,Way,Regional,-28.275921,153.499039
0101000020E6100000CE8B135FED1F63401E53776517543DC0,04672,"Summerland Way, South of Back Forest Road",Summerland Way,Summerland Way,Summerland Way,South of Back Forest Road,Whiporie,2469,Richmond Valley,Northern,30,Back Forest Road,0000083,0160,B91,Trafficorder Tube Axlepair Counter,0,1,OnGround,Way,State,-29.328482,152.997726
0101000020E6100000DE21C50009336340643F8BA548BE3CC0,04674,"Byron Bay Road, South of Bundaleer Road",Byron Bay Road,Byron Bay Road,Byron Bay Road,South of Bundaleer Road,Broken Head,2481,Ballina,Northern,250,Bundaleer Road,0000545,0081,NULL,Trafficorder Tube Axlepair Counter,0,1,OnGround,Road,Regional,-28.743296,153.594849
0101000020E610000081936DE08E31634083A5BA8097DD3CC0,04680,"River Street, East of Bagot Street",River Street,River Street,River Street,East of Bagot Street,Ballina,2478,Ballina,Northern,30,Bagot Street,0000695,3120,NULL,Trafficorder Tube Axlepair Counter,0,0,OnGround,Street,Local,-28.865593,153.548691
0101000020E6100000ABB35A600F2963407845F0BF95D03CC0,04683,"Ballina Road, East of Conway Street",Ballina Road,Ballina Road,Bruxner Highway,East of Conway Street,East Lismore,2480,Lismore,Northern,80,Conway Street,0000016,0165,B60,Trafficorder Tube Axlepair Counter,0,0,OnGround,Highway,State,-28.814785,153.283127
0101000020E610000020D5B0DF13246340BB6246787B483EC0,04990,"Pacific Highway, East of Woolgoolga Road",Pacific Highway,Pacific Highway,Pacific Highway,East of Woolgoolga Road,Coffs Harbour,2450,Coffs Harbour,Northern,100,Woolgoolga Road,0000010,2545,NULL,Trafficorder Tube Axlepair Counter,0,0,OnGround,Highway,State,-30.283134,153.127426
0101000020E61000007E8AE3C02BF66240ADDD76A1B96840C0,05001,"Pacific Highway, West of Tomago Road",Pacific Highway,Pacific Highway,"Pacific.pacific Highway, Hexham",West of Tomago Road,Tomago,2322,Port Stephens,Hunter,380,Tomago Road,0000010,1710,A1,Trafficorder Loop Counter,1,0,OnGround,Highway,State,-32.818165,151.692841
0101000020E61000000118CFA021F4624001F73C7FDA8C40C0,05002,"Pacific Highway, South of Nioka Place",Pacific Highway,Pacific Highway,"Pacific.pacific Highway, Nords Wharf",South of Nioka Place,Pinny Beach,2281,Lake Macquarie,Hunter,260,Nioka Place,0000010,1267,A43,Trafficorder Loop Counter,1,0,OnGround,Highway,State,-33.100418,151.629105
0101000020E61000005437177F5BE66240D7DF12807F4C40C0,05003,"New England Highway, North of Range Road",New England Highway,New England Highway,New England Highway,North of Range Road,Whittingham,2330,Singleton,Hunter,780,Range Road,0000009,0417,A15,Trafficorder Loop Counter,1,0,OnGround,Highway,State,-32.597641,151.198669
0101000020E6100000357A354069E662405167EE21E1C340C0,05005,"Pacific Motorway, East of Pacific Highway",Pacific Motorway,Pacific Motorway,Pacific Motorway,East of Pacific Highway,Mooney Mooney,2083,Gosford,Hunter,140,Pacific Highway,0006003,1115,M1,Trafficorder Loop Counter,1,0,OnGround,Motorway,State,-33.530308,151.200348
0101000020E6100000575EF23FF9FE62401D2098A3C75340C0,05006,"Tarean Road, East of Memorial Drive",Tarean Road,Tarean Road,Tarean Road,East of Memorial Drive,Karuah,2324,Port Stephens,Hunter,40,Memorial Drive,-10,-10,NULL,Trafficorder Loop Counter,1,0,OnGround,Road,Local,-32.654530,151.967926
0101000020E6100000FCDEA63FFBEC6240C07971E2ABA340C0,05007,"Pacific Motorway, South of Yarramalong Road",Pacific Motorway,Pacific Motorway,"Pacific.sydney-Newcastle Freeway, Tuggerah",South of Yarramalong Road,Wyong,2259,Wyong,Hunter,300,Yarramalong Road,0006003,1222,M1,Trafficorder Loop Counter,1,0,OnBridge,Motorway,State,-33.278683,151.405670
0101000020E6100000EB573A1F9EEB62401C60E63BF8B740C0,05008,"The Entrance Road, South of Newcastle Street",The Entrance Road,The Entrance Road,"The Entrance.the Entrance Rd, Erina",South of Newcastle Street,Erina,2250,Gosford,Hunter,360,Newcastle Street,0000030,2060,A49,Trafficorder Loop Counter,1,0,OnGround,Road,State,-33.437263,151.363052
0101000020E6100000D097DEFEDCEB6240D788601C5CAE40C0,05012,"Pacific Highway, South of Glen Road",Pacific Highway,Pacific Highway,Pacific Highway,South of Glen Road,Ourimbah,2258,Wyong,Hunter,50,Glen Road,0000010,1065,NULL,Trafficorder Tube Axlepair Counter,0,0,OnGround,Highway,State,-33.362186,151.370727
0101000020E610000049F25CDF87F0624068CD8FBFB49A40C0,05013,"Pacific Highway, West of Yuruga Avenue",Pacific Highway,Pacific Highway,"Pacific.pacific Highway, Charmhaven",West of Yuruga Avenue,Blue Haven,2262,Wyong,Hunter,40,Yuruga Avenue,0000010,1186,NULL,Trafficorder Loop Counter,1,0,OnGround,Highway,State,-33.208641,151.516586
0101000020E61000007C60C77F81E96240E73922DFA5B240C0,05015,"Pacific Motorway, East of Reeves Street",Pacific Motorway,Pacific Motorway,Pacific Motorway,East of Reeves Street,Somersby,2250,Gosford,Hunter,10,Reeves Street,0006003,1170,M1,Trafficorder Loop Counter,1,0,OnGround,Motorway,State,-33.395687,151.297058
0101000020E6100000971AA19F29F6624014967840D97640C0,05016,"Mccaffrey Drive, West of Lookout Road",Mccaffrey Drive,Mccaffrey Drive,Mccaffrey Drive,West of Lookout Road,New Lambton Heights,2305,Newcastle,Hunter,100,Lookout Road,0007770,0010,NULL,Trafficorder Tube Axlepair Counter,0,0,OnGround,Drive,Regional,-32.928505,151.692581
0101000020E61000003A92CB7F48F462406D0377A04E6940C0,05018,"Pacific Motorway, South of Lenaghans Drive",Pacific Motorway,Pacific Motorway,"Pacific.sydney-Newcastle Freeway, Seahampton",South of Lenaghans Drive,Black Hill,2322,Newcastle,Hunter,280,Lenaghans Drive,0006003,1390,M1,Trafficorder Loop Counter,1,0,OnGround,Motorway,State,-32.822712,151.633850
0101000020E61000004D31074147F562405A2E1B9DF37140C0,05024,"Minmi Road, West of Fletcher Street",Minmi Road,Minmi Road,Minmi Road,West of Fletcher Street,Wallsend,2287,Newcastle,Hunter,60,Fletcher Street,-10,-10,NULL,Trafficorder Tube Axlepair Counter,0,0,OnGround,Road,Local,-32.890247,151.664948
0101000020E610000043E389204EF0624045D7851F9C9B40C0,05027,"Pacific Highway, East of Allambee Crescent",Pacific Highway,Pacific Highway,Pacific Highway,East of Allambee Crescent,San Remo,2262,Wyong,Hunter,50,Allambee Crescent,0000010,1186,NULL,Trafficorder Tube Axlepair Counter,0,0,OnGround,Highway,State,-33.215702,151.509537
0101000020E6100000711B0DE0ADF46240295FD042027040C0,05029,"Minmi Road, East of Prestwick Street",Minmi Road,Minmi Road,Minmi Road,East of Prestwick Street,Fletcher,2287,Newcastle,Hunter,240,Prestwick Street,-10,-10,NULL,Trafficorder Tube Axlepair Counter,0,1,OnGround,Road,Local,-32.875069,151.646225
0101000020E6100000522B4CDF6BED62404583143C855A40C0,05030,"New England Highway, West of Oswald Road",New England Highway,New England Highway,New England Highway,West of Oswald Road,Harpers Hill,2321,Maitland,Hunter,490,Oswald Road,0000009,0320,A43,Trafficorder Tube Axlepair Counter,0,1,OnGround,Highway,State,-32.707191,151.419418
0101000020E61000007521567F84EA6240787B1002F25340C0,05033,"Hunter Expressway, East of New England Highway",Hunter Expressway,Hunter Expressway,Hunter Expressway,East of New England Highway,Branxton,2335,Singleton,Hunter,730,New England Highway,0006011,0240,M15,Trafficorder Tube Axlepair Counter,0,1,OnBridge,Expressway,Local,-32.655823,151.328674
0101000020E61000009A3E3BE03AE2624049B9FB1C1F3B40C0,05037,"New England Highway, South of Lemington Road",New England Highway,New England Highway,New England Highway,South of Lemington Road,Ravensworth,2330,Singleton,Hunter,490,Lemington Road,0000009,0470,A15,Trafficorder Tube Axlepair Counter,0,1,OnBridge,Highway,State,-32.461887,151.069687
0101000020E61000009B38B9DF21EA62405455682096B740C0,05042,"Brisbane Water Drive, North of Sunshine Drive",Brisbane Water Drive,Brisbane Water Drive,Brisbane Water Drive,North of Sunshine Drive,Point Clare,2250,Gosford,Hunter,70,Sunshine Drive,0000349,0075,NULL,Trafficorder Tube Axlepair Counter,0,0,OnBridge,Drive,State,-33.434269,151.316635
0101000020E6100000E657738060EA624016DEE522BEBD40C0,05043,"Brisbane Water Drive, North of The Boulevarde",Brisbane Water Drive,Brisbane Water Drive,"Brisbane Water.brisbane Water Drive, Woy Woy",North of The Boulevarde,Woy Woy,2256,Gosford,Hunter,110,The Boulevarde,0000349,0055,NULL,Trafficorder Loop Counter,1,0,OnGround,Drive,State,-33.482365,151.324280
0101000020E6100000000341808CED6240FF9600FC53A840C0,05049,"Wyong Road, North of Ibis Road",Wyong Road,Wyong Road,Wyong Road,North of Ibis Road,Tuggerah,2259,Wyong,Hunter,20,Ibis Road,0000335,0176,B74,Trafficorder Tube Axlepair Counter,0,0,OnGround,Road,State,-33.315063,151.423401
0101000020E6100000575EF23F79ED62400F99F221A8A640C0,05051,"Pacific Highway, North of Mildon Road",Pacific Highway,Pacific Highway,Pacific Highway,North of Mildon Road,Tuggerah,2259,Wyong,Hunter,150,Mildon Road,0000010,1120,NULL,Trafficorder Tube Axlepair Counter,0,0,OnGround,Highway,State,-33.302006,151.421051
0101000020E61000008FFCC1C0F3F5624000C45DBD8A6A40C0,05052,"Maitland Road, West of Galleghan Street",Maitland Road,Maitland Road,Maitland Road,West of Galleghan Street,Hexham,2322,Newcastle,Hunter,370,Galleghan Street,0000010,1705,A43,Trafficorder Tube Axlepair Counter,0,1,OnGround,Road,Local,-32.832359,151.686005
0101000020E61000003483F8C08EF5624016DEE522BE6740C0,05055,"New England Highway, East of Woodlands Close",New England Highway,New England Highway,"New England.new England Highway, Hexham",East of Woodlands Close,Tarro,2322,Newcastle,Hunter,400,Woodlands Close,0000009,0105,A43,Trafficorder Loop Counter,1,0,OnGround,Highway,State,-32.810490,151.673676
0101000020E610000048E00F3FFFF7624082E7DEC3256140C0,05056,"William Bailey Street, North of Adelaide Street",William Bailey Street,William Bailey Street,William Bailey Street,North of Adelaide Street,Raymond Terrace,2324,Port Stephens,Hunter,110,Adelaide Street,0000104,0130,NULL,Trafficorder Tube Axlepair Counter,0,0,OnGround,Street,State,-32.758965,151.749908
0101000020E610000086AE44A07AF462404FE61F7D936640C0,05057,"New England Highway, North of Enterprise Drive",New England Highway,New England Highway,New England Highway,North of Enterprise Drive,Beresfield,2322,Newcastle,Hunter,460,Enterprise Drive,0000009,0113,A43,Trafficorder Tube Axlepair Counter,0,1,OnGround,Highway,State,-32.801376,151.639969
0101000020E61000002B323A2009F46240DDB243FCC36440C0,05058,"New England Highway, East of Avalon Drive",New England Highway,New England Highway,New England Highway,East of Avalon Drive,Thornton,2322,Maitland,Hunter,20,Avalon Drive,0000009,0116,A43,Trafficorder Tube Axlepair Counter,0,1,OnGround,Highway,State,-32.787231,151.626114
0101000020E6100000F1811DFF85F06240DFDFA0BDFA5A40C0,05062,"New England Highway, West of Denton Park Drive",New England Highway,New England Highway,New England Highway,West of Denton Park Drive,Rutherford,2320,Maitland,Hunter,30,Denton Park Drive,0000009,0305,A43,Trafficorder Tube Axlepair Counter,0,1,OnGround,Highway,State,-32.710777,151.516357
0101000020E6100000859675FFD8DC6240A759A0DD211F40C0,05063,"Aberdeen Street, South of Sandy Creek Road",Aberdeen Street,Aberdeen Street,New England Highway,South of Sandy Creek Road,Muswellbrook,2333,Muswellbrook,Hunter,230,Sandy Creek Road,0000009,0620,A15,Trafficorder Tube Axlepair Counter,0,1,OnGround,Highway,State,-32.243221,150.901489
0101000020E6100000DE1E8480FCF76240FFCC203EB06340C0,05075,"Pacific Highway, North of Orton Close",Pacific Highway,Pacific Highway,Pacific Highway,North of Orton Close,Heatherbrae,2324,Port Stephens,Hunter,280,Orton Close,0000010,1735,A1,Trafficorder Tube Axlepair Counter,0,1,OnGround,Highway,State,-32.778816,151.749573
0101000020E6100000A27DACE037FC624092CCEA1D6E5340C0,05083,"Pacific Highway, East of The Bucketts Way",Pacific Highway,Pacific Highway,Pacific Highway,East of The Bucketts Way,Twelve Mile Creek,2324,Port Stephens,Hunter,1460,The Bucketts Way,0000010,1820,A1,Trafficorder Tube Axlepair Counter,0,1,OnGround,Highway,State,-32.651798,151.881821
0101000020E610000093020B60CAFB62405B5B785E2A5240C0,05084,"The Bucketts Way, North of Pacific Highway",The Bucketts Way,The Bucketts Way,The Bucketts Way,North of Pacific Highway,Twelve Mile Creek,2324,Port Stephens,Hunter,1200,Pacific Highway,0000090,0010,NULL,Trafficorder Tube Axlepair Counter,0,1,OnGround,,Regional,-32.641918,151.868454
0101000020E61000003FADA23FB4F262404583143C857240C0,05095,"Pacific Motorway, West of George Booth Drive",Pacific Motorway,Pacific Motorway,"Sydney-Newcastle Freeway, Seahampton.sydney-Newcastle Freeway, Seahampton",West of George Booth Drive,West Wallsend,2286,Lake Macquarie,Hunter,250,George Booth Drive,0006003,1360,M1,Trafficorder Loop Counter,1,0,OnGround,Motorway,State,-32.894691,151.584503
0101000020E610000066BE839F38F26240E97E4E417E8040C0,05096,"Awaba Road, East of Grattoir Place",Awaba Road,Awaba Road,"Awaba.awaba Rd, Toronto",East of Grattoir Place,Toronto,2283,Lake Macquarie,Hunter,140,Grattoir Place,0000220,0020,NULL,Trafficorder Loop Counter,1,0,OnGround,Road,State,-33.003853,151.569412
0101000020E61000007A54FCDF91F06240CDCD37A27B7E40C0,05097,"Pacific Motorway, West of Cessnock Road",Pacific Motorway,Pacific Motorway,"Sydney-Newcastle Freeway, Freemans Waterhole.sydney-Newcastle Freeway, Freemans Waterhole",West of Cessnock Road,Freemans Waterhole,2323,Lake Macquarie,Hunter,140,Cessnock Road,0006003,1340,M1,Trafficorder Loop Counter,1,0,OnGround,Motorway,State,-32.988148,151.517807
0101000020E61000002E56D4609AF06240177E703E757E40C0,05098,"Pacific Motorway, West of Cessnock Road",Pacific Motorway,Pacific Motorway,"Pacific.sydney-Newcastle Freeway, Freemans Waterhole",West of Cessnock Road,Freemans Waterhole,2323,Lake Macquarie,Hunter,60,Cessnock Road,0006003,1340,M1,Trafficorder Loop Counter,1,0,OnGround,Motorway,State,-32.987953,151.518845
0101000020E6100000A795422097EA6240B3075A8121C140C0,05104,"Memorial Avenue, South of Gallipoli Avenue",Memorial Avenue,Memorial Avenue,Memorial Drive,South of Gallipoli Avenue,Blackwall,2256,Gosford,Hunter,30,Gallipoli Avenue,0000349,0005,NULL,Trafficorder Tube Axlepair Counter,0,0,OnGround,Drive,State,-33.508835,151.330948
0101000020E61000002E5915E126EA62403D9E961FB8C240C0,05108,"West Street, West of Oscar Street",West Street,West Street,West Street,West of Oscar Street,Umina Beach,2257,Gosford,Hunter,40,Oscar Street,0000456,0020,NULL,Trafficorder Tube Axlepair Counter,0,0,OnGround,Street,Regional,-33.521244,151.317246
0101000020E610000000FDBE7FF3EB624093382BA226B840C0,05114,"Avoca Drive, South of The Entrance Road",Avoca Drive,Avoca Drive,Avoca Drive,South of The Entrance Road,Erina,2250,Gosford,Hunter,100,The Entrance Road,0000504,0010,NULL,Trafficorder Tube Axlepair Counter,0,0,OnGround,Drive,State,-33.438679,151.373474
0101000020E6100000F0A5F0A0D9EA62409C3237DF88B640C0,05119,"Showground Road, North of Dane Drive",Showground Road,Showground Road,Showground Road,North of Dane Drive,Gosford,2250,Gosford,Hunter,80,Dane Drive,-10,-10,NULL,Trafficorder Tube Axlepair Counter,0,0,OnGround,Road,Local,-33.426052,151.339066
0101000020E61000009A232BBF8CE76240956247E350A740C0,05122,"George Downes Drive, North of The Link Road",George Downes Drive,George Downes Drive,George Downes Drive,North of The Link Road,Central Mangrove,2250,Gosford,Hunter,140,The Link Road,0000590,0010,NULL,Trafficorder Tube Axlepair Counter,0,1,OnGround,Drive,Regional,-33.307156,151.235931
0101000020E6100000BF4692205CE762401C9947FE60A440C0,05123,"George Downes Drive, South of Hallards Road",George Downes Drive,George Downes Drive,George Downes Drive,South of Hallards Road,Central Mangrove,2250,Gosford,Hunter,140,Hallards Road,0000590,0020,NULL,Trafficorder Tube Axlepair Counter,0,1,OnGround,Drive,Regional,-33.284210,151.229996
0101000020E61000002D26361F57ED62408CF678211DB840C0,05125,"Terrigal Drive, East of Serpentine Road",Terrigal Drive,Terrigal Drive,Terrigal Drive,East of Serpentine Road,Terrigal,2260,Gosford,Hunter,40,Serpentine Road,0000505,0040,NULL,Trafficorder Tube Axlepair Counter,0,0,OnGround,Drive,State,-33.438389,151.416885
0101000020E61000000B630B410EEB6240BD8E386403C140C0,05127,"Maitland Bay Drive, West of Orange Grove Road",Maitland Bay Drive,Maitland Bay Drive,Empire Bay Drive,West of Orange Grove Road,Blackwall,2256,Gosford,Hunter,20,Orange Grove Road,0000349,0003,NULL,Trafficorder Tube Axlepair Counter,0,0,OnBridge,Drive,State,-33.507916,151.345490
0101000020E6100000BD1C76DF31EA6240503750E09DB640C0,05137,"Manns Road, South of Dyer Crescent",Manns Road,Manns Road,Manns Road,South of Dyer Crescent,West Gosford,2250,Gosford,Hunter,70,Dyer Crescent,0000349,0095,NULL,Trafficorder Tube Axlepair Counter,0,0,OnGround,Road,State,-33.426693,151.318588
0101000020E61000005455682096F26240931D1B81785F40C0,05140,"Newcastle Street, South of Emerald Street",Newcastle Street,Newcastle Street,"New England.new England Highway, East Maitland",South of Emerald Street,East Maitland,2323,Maitland,Hunter,50,Emerald Street,0000009,0150,A43,Trafficorder Loop Counter,1,0,OnGround,Highway,State,-32.745865,151.580826
0101000020E6100000BB0D6ABF35EB6240B0CBF09F6EB440C0,05143,"Henry Parry Drive, South of Pemell Street",Henry Parry Drive,Henry Parry Drive,Henry Parry Drive,South of Pemell Street,Wyoming,2250,Gosford,Hunter,80,Pemell Street,0000673,0010,NULL,Trafficorder Tube Axlepair Counter,0,0,OnGround,Drive,State,-33.409626,151.350311
0101000020E6100000EF8D210038EB6240FF23D3A1D3B740C0,05146,"Henry Parry Drive, South of Wells Street",Henry Parry Drive,Henry Parry Drive,Henry Parry Drive,South of Wells Street,East Gosford,2250,Gosford,Hunter,40,Wells Street,0000673,0010,NULL,Trafficorder Tube Axlepair Counter,0,0,OnGround,Drive,State,-33.436146,151.350586
0101000020E6100000F7CC920035F762400AF4893C496040C0,05150,"Raymond Terrace Road, West of Dockyard Road",Raymond Terrace Road,Raymond Terrace Road,"Raymond Terrace.raymond Terrace Rd, Millers Forest",West of Dockyard Road,Millers Forest,2324,Maitland,Hunter,120,Dockyard Road,0000104,0170,NULL,Trafficorder Loop Counter,1,0,OnGround,Road,State,-32.752235,151.725220
0101000020E610000081785DBF60EE62403FE603029DAF40C0,05154,"Morgan Avenue, West of Eastern Road",Morgan Avenue,Morgan Avenue,Morgan Avenue,West of Eastern Road,Tumbi Umbi,2261,Wyong,Hunter,150,Eastern Road,0007756,0020,NULL,Trafficorder Tube Axlepair Counter,0,0,OnGround,Avenue,Local,-33.371979,151.449310
0101000020E61000000F60915F3FED62406E4E250340A740C0,05161,"Wyong Road, West of Gavenlock Road",Wyong Road,Wyong Road,Wyong Road,West of Gavenlock Road,Tuggerah,2259,Wyong,Hunter,170,Gavenlock Road,0000335,0161,B74,Trafficorder Tube Axlepair Counter,0,0,OnGround,Road,Local,-33.306641,151.413986
0101000020E6100000859675FFD8EF6240AFD172A087A040C0,05165,"Wallarah Road, West of Minnamurra Road",Wallarah Road,Wallarah Road,Wallarah Road,West of Minnamurra Road,Gorokan,2263,Wyong,Hunter,0,Minnamurra Road,0000509,0015,B70,Trafficorder Tube Axlepair Counter,0,0,OnGround,Road,State,-33.254139,151.495239
0101000020E61000003CA1D79F44F6624065DF15C1FF7A40C0,05166,"Charlestown Road, West of Stuart Street",Charlestown Road,Charlestown Road,Charlestown Road,West of Stuart Street,Charlestown,2290,Lake Macquarie,Hunter,50,Stuart Street,0000674,0100,B57,Trafficorder Tube Axlepair Counter,0,0,OnGround,Road,State,-32.960930,151.695877
0101000020E6100000D7FA22A1ADDF6240207EFE7BF05840C0,05167,"Putty Road, West of Milbrodale Road",Putty Road,Putty Road,"The Putty.the Putty Rd, Milbrodale",West of Milbrodale Road,Milbrodale,2330,Singleton,Hunter,1540,Milbrodale Road,0000503,1180,NULL,Trafficorder Loop Counter,1,0,OnGround,Road,State,-32.694839,150.989945
0101000020E6100000063065E000FB62405DA626C11B6840C0,05191,"Nelson Bay Road, North of Moxey Close",Nelson Bay Road,Nelson Bay Road,"Nelson Bay.nelson Bay Rd, Williamtown",North of Moxey Close,Williamtown,2318,Port Stephens,Hunter,70,Moxey Close,0000108,0100,B63,Trafficorder Loop Counter,1,0,OnGround,Road,State,-32.813347,151.843857
0101000020E6100000C9737D1F0EEB624077483140A2B340C0,05192,"Showground Road, South of Bellbowrie Avenue",Showground Road,Showground Road,Showground Road,South of Bellbowrie Avenue,Narara,2250,Gosford,Hunter,10,Bellbowrie Avenue,-10,-10,NULL,Trafficorder Tube Axlepair Counter,0,0,OnGround,Road,Local,-33.403389,151.345474
0101000020E6100000ACADD85FF6EA62409605137F14B340C0,05193,"Manns Road, South of Narara Valley Drive",Manns Road,Manns Road,Manns Road,South of Narara Valley Drive,Narara,2250,Gosford,Hunter,100,Narara Valley Drive,0000349,0105,NULL,Trafficorder Tube Axlepair Counter,0,0,OnGround,Road,State,-33.399063,151.342575
0101000020E6100000D4BB783F6EED62409F1D705D316940C0,05194,"Cessnock Road, North of Charles Street",Cessnock Road,Cessnock Road,"Cessnock.cessnock Rd, Weston",North of Charles Street,Abermain,2326,Cessnock,Hunter,70,Charles Street,0000588,0190,B68,Trafficorder Loop Counter,1,0,OnGround,Road,State,-32.821819,151.419708
0101000020E6100000F9FFFF5F6EEF6240020000803D7C40C0,05196,"Branxton-Toronto Rd, North of Palmers Road",Branxton-Toronto Rd,Freemans Drive,"Leggetts.toronto-Branxton Road, Freemans Waterhole",North of Palmers Road,Freemans Waterhole,2323,Lake Macquarie,Hunter,480,Palmers Road,0000220,0065,B82,Trafficorder Loop Counter,1,0,OnGround,Drive,State,-32.9706268310547,151.482223510742
0101000020E61000006FF4311F90F06240ABCE6A813D6A40C0,05197,"John Renshaw Drive, East of Averys Lane",John Renshaw Drive,John Renshaw Drive,John Renshaw Drive,East of Averys Lane,Buchanan,2323,Cessnock,Hunter,410,Averys Lane,0000588,0055,B68,Trafficorder Tube Axlepair Counter,0,1,OnGround,Drive,Local,-32.830002,151.517593
0101000020E6100000D1CDFE4039EF624049B9FB1C1FAF40C0,05199,"The Entrance Road, East of Graham Street",The Entrance Road,The Entrance Road,"The Entrance.the Entrance Rd, Shelly Beach",East of Graham Street,Long Jetty,2261,Wyong,Hunter,90,Graham Street,0000030,2160,A49,Trafficorder Loop Counter,1,0,OnGround,Road,State,-33.368137,151.475739
0101000020E610000060915F3F44F66240F1660DDE577B40C0,05201,"Pacific Highway, South of Smart Street",Pacific Highway,Pacific Highway,"Pacific.pacific Highway, Charlestown",South of Smart Street,Charlestown,2290,Lake Macquarie,Hunter,10,Smart Street,0000010,1440,A43,Trafficorder Loop Counter,1,0,OnGround,Highway,State,-32.963619,151.695831
0101000020E61000007F69519FE4F76240E869C020E97340C0,05202,"Maitland Road, North of Omara Street",Maitland Road,Maitland Road,"Maitland.maitland Rd, Tighes Hill",North of Omara Street,Mayfield,2304,Newcastle,Hunter,20,Omara Street,0000464,0090,NULL,Trafficorder Loop Counter,1,0,OnGround,Road,Regional,-32.905552,151.746658
0101000020E61000001172DEFF47F662402D3E05C0787640C0,05204,"Lookout Road, North of Bushlands Close",Lookout Road,Lookout Road,"Lookout.lookout Rd, New Lambton",North of Bushlands Close,New Lambton Heights,2305,Newcastle,Hunter,30,Bushlands Close,0000023,0900,A37,Trafficorder Loop Counter,1,0,OnGround,Road,State,-32.925560,151.696289
0101000020E6100000D1CDFE40B9F7624090A2CEDC437640C0,05205,"Belford Street, North of Dixon Street",Belford Street,Belford Street,"Belford.belford St, Broadmeadow",North of Dixon Street,Broadmeadow,2292,Newcastle,Hunter,50,Dixon Street,0000604,0030,NULL,Trafficorder Loop Counter,1,0,OnGround,Street,Regional,-32.923946,151.741364
0101000020E6100000E960FD9FC3F76240A4AA09A2EE7740C0,05206,"Glebe Road, East of June Street",Glebe Road,Glebe Road,"Glebe.glebe Rd, Hamilton South",East of June Street,Hamilton South,2303,Newcastle,Hunter,110,June Street,0000188,0050,NULL,Trafficorder Loop Counter,1,0,OnGround,Road,Regional,-32.936970,151.742630
0101000020E6100000ADC266800BF76240B0AD9FFEB37240C0,05207,"Maud Street, East of Lorna Street",Maud Street,Maud Street,"Maud.maud St, Mayfield West",East of Lorna Street,Waratah,2298,Newcastle,Hunter,40,Lorna Street,0000605,0010,NULL,Trafficorder Loop Counter,1,0,OnGround,Street,State,-32.896118,151.720154
0101000020E6100000554FE61FFDF36240B2A19BFD817840C0,05208,"Lake Road, North of T C Frith Avenue",Lake Road,Lake Road,"Lake.lake Rd, Cockle Creek",North of T C Frith Avenue,Argenton,2284,Lake Macquarie,Hunter,130,T C Frith Avenue,0000217,0340,B53,Trafficorder Loop Counter,1,0,OnGround,Road,State,-32.941467,151.624649
0101000020E61000000F63D2DF4BF862404628B682A67540C0,05209,"Hannell Street, North of Greenway Street",Hannell Street,Hannell Street,"Hannell.hannell St, Wickham",North of Greenway Street,Wickham,2293,Newcastle,Hunter,60,Greenway Street,0000316,0095,A43,Trafficorder Loop Counter,1,0,OnGround,Street,State,-32.919144,151.759262
0101000020E6100000040000C0E7F66240FCFFFF9FF48040C0,05210,"Red Head Road, South of White Cap Close",Red Head Road,Red Head Road,"Collier.redhead Rd, Dudley",South of White Cap Close,Redhead,2290,Lake Macquarie,Hunter,20,White Cap Close,0000325,0055,NULL,Trafficorder Loop Counter,1,0,OnGround,Street,Regional,-33.0074653625488,151.715789794922
0101000020E6100000C367EBE060F56240747E8AE3C07D40C0,05211,"Warners Bay Road, West of Wilsons Road",Warners Bay Road,Warners Bay Road,Warners Bay Road,West of Wilsons Road,Mount Hutton,2290,Lake Macquarie,Hunter,70,Wilsons Road,0000325,0230,NULL,Trafficorder Loop Counter,1,0,OnGround,Road,Regional,-32.982449,151.668076
0101000020E6100000AFB321FFCCF46240FE0E45813E8340C0,05213,"Croudace Bay Road, North of Belmont Crescent",Croudace Bay Road,Croudace Bay Road,"Croudace Bay.croudace Bay Rd, Belmont",North of Belmont Crescent,Belmont,2280,Lake Macquarie,Hunter,90,Belmont Crescent,0000527,0040,B89,Trafficorder Loop Counter,1,0,OnGround,Road,State,-33.025345,151.650024
0101000020E6100000D5CDC5DFF6EE62405FD04202469740C0,05222,"Pacific Motorway, South of Hue Hue Road",Pacific Motorway,Pacific Motorway,"Pacific.sydney-Newcastle Freeway, Warnervale",South of Hue Hue Road,Wyee,2259,Lake Macquarie,Hunter,60,Hue Hue Road,0006003,1250,M1,Trafficorder Loop Counter,1,0,OnGround,Motorway,State,-33.181824,151.467636
0101000020E61000001CB7989F1BD6624065FD6662BA3040C0,05223,"Palace Street, North of Kenilworth Street",Palace Street,Palace Street,"Golden.golden Highway, Denman",North of Kenilworth Street,Denman,2328,Muswellbrook,Hunter,40,Kenilworth Street,0000027,0160,B84,Trafficorder Loop Counter,1,0,OnGround,Highway,State,-32.380688,150.690872
0101000020E610000061A92EE065EB6240E61E12BEF75340C0,05239,"Maitland Street, West of Elderslie Road",Maitland Street,Maitland Street,Maitland Street,West of Elderslie Road,Branxton,2335,Cessnock,Hunter,100,Elderslie Road,0000453,0010,NULL,Trafficorder Tube Axlepair Counter,0,1,OnGround,Street,Local,-32.655998,151.356186
0101000020E61000009A266C3F99E562406E1805C1E34740C0,05241,"George Street, North of Macquarie Street",George Street,George Street,George Street,North of Macquarie Street,Singleton,2330,Singleton,Hunter,60,Macquarie Street,0000009,0430,A15,Trafficorder Tube Axlepair Counter,0,0,OnGround,Street,State,-32.561638,151.174957
0101000020E6100000B3D1393F45DD6240AB59677C5F2440C0,05244,"New England Highway, East of Grant Miller Street",New England Highway,New England Highway,New England Highway,East of Grant Miller Street,Muswellbrook,2333,Muswellbrook,Hunter,280,Grant Miller Street,0000009,0530,A15,Trafficorder Tube Axlepair Counter,0,0,OnGround,Highway,State,-32.284164,150.914703
0101000020E6100000D2A92B9F65DC6240003961C2682240C0,05245,"Maitland Street, South of Sydney Street",Maitland Street,Maitland Street,Maitland Street,South of Sydney Street,Muswellbrook,2333,Muswellbrook,Hunter,100,Sydney Street,0000009,0560,A15,Trafficorder Tube Axlepair Counter,0,0,OnGround,Street,State,-32.268822,150.887405
0101000020E610000024ED461F73DC6240B1A4DC7D8E2140C0,05247,"Bridge Street, South of Hill Street",Bridge Street,Bridge Street,Bridge Street,South of Hill Street,Muswellbrook,2333,Muswellbrook,Hunter,100,Hill Street,0000009,0600,A15,Trafficorder Tube Axlepair Counter,0,0,OnGround,Street,State,-32.262161,150.889053
0101000020E610000070067FBF98ED6240A6B915C26AA440C0,05249,"Pacific Highway, South of Alison Road",Pacific Highway,Pacific Highway,Pacific Highway,South of Alison Road,Wyong,2259,Wyong,Hunter,20,Alison Road,0000010,1130,NULL,Trafficorder Tube Axlepair Counter,0,0,OnGround,Highway,State,-33.284508,151.424896
0101000020E610000062BEBC00FBF46240056C0723F68540C0,05255,"Pacific Highway, South of Capri Close",Pacific Highway,Pacific Highway,Pacific Highway,South of Capri Close,Belmont South,2280,Lake Macquarie,Hunter,60,Capri Close,0000010,1310,A43,Trafficorder Tube Axlepair Counter,0,0,OnGround,Highway,State,-33.046574,151.655640
0101000020E6100000271763601DF66240871403249A7E40C0,05259,"Pacific Highway, South of Oakdale Road",Pacific Highway,Pacific Highway,Pacific Highway,South of Oakdale Road,Gateshead,2290,Lake Macquarie,Hunter,50,Oakdale Road,0000010,1397,A43,Trafficorder Tube Axlepair Counter,0,0,OnGround,Highway,State,-32.989079,151.691086
0101000020E6100000F9D85DA024F66240B8B06EBC3B7C40C0,05261,"Pacific Highway, South of Warners Bay Road",Pacific Highway,Pacific Highway,Pacific Highway,South of Warners Bay Road,Charlestown,2290,Lake Macquarie,Hunter,40,Warners Bay Road,0000010,1410,A43,Trafficorder Tube Axlepair Counter,0,0,OnGround,Highway,State,-32.970573,151.691971
0101000020E610000009336DFFCAF6624021CCED5EEE7940C0,05265,"City Road, East of Kahibah Road",City Road,City Road,City Road,East of Kahibah Road,Adamstown Heights,2289,Newcastle,Hunter,80,Kahibah Road,0000010,1480,A43,Trafficorder Tube Axlepair Counter,0,0,OnGround,Road,State,-32.952587,151.712280
0101000020E6100000A0504F1F01F762401F9F909DB77940C0,05266,"City Road, East of Faul Street",City Road,City Road,City Road,East of Faul Street,Adamstown Heights,2289,Newcastle,Hunter,30,Faul Street,0000010,1500,A43,Trafficorder Tube Axlepair Counter,0,0,OnGround,Road,State,-32.950916,151.718887
0101000020E6100000FFEA71DFEAF76240A5D76663257840C0,05269,"City Road, West of Railway Street",City Road,City Road,City Road,West of Railway Street,Merewether,2291,Newcastle,Hunter,30,Railway Street,0000010,1515,A43,Trafficorder Tube Axlepair Counter,0,0,OnGround,Road,State,-32.938641,151.747421
0101000020E61000006ADFDC5F3DF8624097C62FBC927640C0,05274,"Parry Street, South of Wood Street",Parry Street,Parry Street,Parry Street,South of Wood Street,Newcastle West,2302,Newcastle,Hunter,60,Wood Street,0000082,0008,A15,Trafficorder Tube Axlepair Counter,0,0,OnGround,Street,State,-32.926353,151.757492
0101000020E6100000041E1840F8F76240155454FD4A7540C0,05279,"Maitland Road, North of Daniel Street",Maitland Road,Maitland Road,Maitland Road,North of Daniel Street,Islington,2296,Newcastle,Hunter,30,Daniel Street,0000464,0070,NULL,Trafficorder Tube Axlepair Counter,0,0,OnGround,Road,Regional,-32.916351,151.749054
0101000020E61000007C6308008EF76240CB64389ECF7240C0,05283,"Maitland Road, North of Kerr Street",Maitland Road,Maitland Road,Maitland Road,North of Kerr Street,Mayfield,2304,Newcastle,Hunter,30,Kerr Street,0000464,0150,NULL,Trafficorder Tube Axlepair Counter,0,0,OnGround,Road,Regional,-32.896961,151.736084
0101000020E61000009A3E3BE03AF762408066101FD87140C0,05285,"Maitland Road, South of Norris Avenue",Maitland Road,Maitland Road,Maitland Road,South of Norris Avenue,Mayfield West,2304,Newcastle,Hunter,50,Norris Avenue,0000464,0160,NULL,Trafficorder Tube Axlepair Counter,0,0,OnGround,Road,Regional,-32.889408,151.725937
0101000020E6100000D097DEFEDCF7624066FA25E2AD6140C0,05289,"Adelaide Street, East of William Street",Adelaide Street,Adelaide Street,Adelaide Street,East of William Street,Raymond Terrace,2324,Port Stephens,Hunter,100,William Street,-10,-10,NULL,Trafficorder Tube Axlepair Counter,0,0,OnGround,Street,Local,-32.763119,151.745727
0101000020E6100000FDD8243FE2EF6240E1EB6B5D6A9A40C0,05302,"Motorway Link, North of Mckellar Boulevard",Motorway Link,Motorway Link,Motorway Link,North of Mckellar Boulevard,Doyalson,2262,Wyong,Hunter,70,Mckellar Boulevard,0000675,0060,A43,Trafficorder Loop Counter,1,0,OnGround,Link,Local,-33.206371,151.496368
0101000020E6100000E73922DFA5F5624054707841447C40C0,05304,"Newcastle Inner City Bypass, West of Teal Court",Newcastle Inner City Bypass,Newcastle Inner City Bypass,Charleston Bypass,West of Teal Court,Hillsborough,2290,Lake Macquarie,Hunter,160,Teal Court,0000023,0810,A37,Trafficorder Tube Axlepair Counter,0,1,OnGround,Bypass,State,-32.970833,151.676498
0101000020E610000088BD50C0F6F5624027F6D03E567A40C0,05306,"Charlestown Road, South of Kirkdale Drive",Charlestown Road,Charlestown Road,Charlestown Road,South of Kirkdale Drive,Charlestown,2290,Lake Macquarie,Hunter,100,Kirkdale Drive,0000674,0130,NULL,Trafficorder Tube Axlepair Counter,0,0,OnGround,Road,Local,-32.955757,151.686371
0101000020E61000008ACC5CE0F2F562407633A31F0D7940C0,05308,"Newcastle Inner City Bypass, North of Charlestown Road",Newcastle Inner City Bypass,Newcastle Inner City Bypass,Charleston Bypass,North of Charlestown Road,Kotara,2289,Newcastle,Hunter,70,Charlestown Road,0000023,0850,A37,Trafficorder Tube Axlepair Counter,0,0,OnGround,Bypass,State,-32.945713,151.685898
0101000020E6100000DE21C50009F662402250FD83487840C0,05309,"Charlestown Road, North of Carnley Avenue",Charlestown Road,Charlestown Road,Charlestown Road,North of Carnley Avenue,New Lambton Heights,2305,Newcastle,Hunter,100,Carnley Avenue,0000023,0860,A37,Trafficorder Tube Axlepair Counter,0,0,OnGround,Road,State,-32.939713,151.688599
0101000020E61000000B630B410EF662406FBBD05CA77740C0,05310,"Lookout Road, North of Cardiff Road",Lookout Road,Lookout Road,Lookout Road,North of Cardiff Road,New Lambton Heights,2305,Newcastle,Hunter,60,Cardiff Road,0000023,0870,A37,Trafficorder Tube Axlepair Counter,0,0,OnGround,Road,State,-32.934795,151.689240
0101000020E610000023F3C81F8CF66240EF5701BEDB7440C0,05314,"Croudace Street, North of Howe Street",Croudace Street,Croudace Street,Croudace Street,North of Howe Street,Lambton,2299,Newcastle,Hunter,30,Howe Street,0000023,0920,A37,Trafficorder Tube Axlepair Counter,0,0,OnGround,Street,State,-32.912956,151.704605
0101000020E61000006FF4311F90F6624012876C205D7440C0,05315,"Newcastle Road, South of Dent Street",Newcastle Road,Newcastle Road,Newcastle Road,South of Dent Street,Lambton,2299,Newcastle,Hunter,10,Dent Street,0000082,0110,A37,Trafficorder Tube Axlepair Counter,0,0,OnGround,Road,State,-32.909092,151.705093
0101000020E61000000A302C7F3EF662406AA0F99CBB7140C0,05320,"Sandgate Road, North of Vale Street",Sandgate Road,Sandgate Road,Sandgate Road,North of Vale Street,Shortland,2307,Newcastle,Hunter,30,Vale Street,-10,-10,NULL,Trafficorder Loop Counter,1,0,OnGround,Road,Local,-32.888538,151.695129
0101000020E6100000B2F2CB608CF662406CEBA7FFAC6F40C0,05321,"Wallsend Road, East of Sandgate Road",Wallsend Road,Wallsend Road,Wallsend Road,East of Sandgate Road,Sandgate,2304,Newcastle,Hunter,140,Sandgate Road,0000023,1040,NULL,Trafficorder Dual Tube Classifier,0,1,OnGround,Road,Local,-32.872467,151.704636
0101000020E6100000E63C635FB2F76240CE55F31C917540C0,05323,"Donald Street, North of Bibby Street",Donald Street,Donald Street,"Donald.donald St, Hamilton",North of Bibby Street,Hamilton,2303,Newcastle,Hunter,80,Bibby Street,0000082,0040,A15,Trafficorder Loop Counter,1,0,OnBridge,Street,State,-32.918491,151.740524
0101000020E6100000A25F5B3FFDF26240CCEEC9C3425940C0,05344,"Paterson Road, North of Cabarita Close",Paterson Road,Paterson Road,Paterson Road,North of Cabarita Close,Bolwarra Heights,2320,Maitland,Hunter,50,Cabarita Close,-10,-10,NULL,Trafficorder Tube Axlepair Counter,0,1,OnGround,Road,Local,-32.697350,151.593414
0101000020E610000024ED461F73F862401024EF1CCA3240C0,05356,"Stroud Hill Road, West of Alison Road",Stroud Hill Road,Stroud Hill Road,Stroud Road,West of Alison Road,Dungog,2420,Dungog,Hunter,180,Alison Road,0000101,0190,NULL,Trafficorder Tube Axlepair Counter,0,1,OnBridge,Road,Regional,-32.396793,151.764053
0101000020E61000000D7217618AF96240F2D24D62106E40C0,05394,"Nelson Bay Road, North of Nineteenth Avenue",Nelson Bay Road,Nelson Bay Road,Nelson Bay Road,North of Nineteenth Avenue,Fern Bay,2295,Port Stephens,Hunter,140,Nineteenth Avenue,0000108,0080,B63,Trafficorder Tube Axlepair Counter,0,1,OnGround,Road,State,-32.859875,151.798142
0101000020E6100000EC6987BFA6FC6240FE47A643A76540C0,05396,"Nelson Bay Road, West of Valerie Road",Nelson Bay Road,Nelson Bay Road,Nelson Bay Road,West of Valerie Road,Salt Ash,2318,Port Stephens,Hunter,890,Valerie Road,0000108,0105,B63,Trafficorder Tube Axlepair Counter,0,1,OnGround,Road,State,-32.794167,151.895355
0101000020E610000089B14CBFC402634037AAD381AC6140C0,05400,"Nelson Bay Road, East of Gan Gan Road",Nelson Bay Road,Nelson Bay Road,Nelson Bay Road,East of Gan Gan Road,Anna Bay,2316,Port Stephens,Hunter,1290,Gan Gan Road,0000108,0140,B63,Trafficorder Tube Axlepair Counter,0,1,OnGround,Road,State,-32.763077,152.086517
0101000020E6100000C040102043F162409F5912A0A63640C0,05424,"Durham Road, East of Lostock Road",Durham Road,Durham Road,Durham Road,East of Lostock Road,Gresford,2311,Dungog,Hunter,180,Lostock Road,0000128,0145,NULL,Trafficorder Tube Axlepair Counter,0,1,OnGround,Road,Regional,-32.426960,151.539444
0101000020E6100000B0CBF09FEEF262409D8026C2864740C0,05427,"Gresford Road, North of Dungog Road",Gresford Road,Gresford Road,Tocal Road,North of Dungog Road,Paterson,2421,Dungog,Hunter,910,Dungog Road,0007778,0010,NULL,Trafficorder Tube Axlepair Counter,0,1,OnGround,Road,Regional,-32.558800,151.591629
0101000020E6100000ED6305BF0DF762401FBDE13E727740C0,05442,"St James Road, North of Glebe Road",St James Road,St James Road,St James Road,North of Glebe Road,New Lambton,2305,Newcastle,Hunter,60,Glebe Road,0000188,0070,NULL,Trafficorder Tube Axlepair Counter,0,0,OnGround,Road,Regional,-32.933174,151.720428
0101000020E6100000118AADA069DC6240DF4E22C2BF2040C0,05471,"Kayuga Road, West of Aberdeen Street",Kayuga Road,Kayuga Road,Kayuga Road,West of Aberdeen Street,Muswellbrook,2333,Muswellbrook,Hunter,150,Aberdeen Street,-10,-10,NULL,Trafficorder Tube Axlepair Counter,0,0,OnGround,Road,Local,-32.255852,150.887894
0101000020E61000005437177F5BDC62408FA850DD5C2240C0,05477,"Sydney Street, West of Mill Street",Sydney Street,Sydney Street,Sydney Street,West of Mill Street,Muswellbrook,2333,Muswellbrook,Hunter,10,Mill Street,0000209,0010,NULL,Trafficorder Tube Axlepair Counter,0,0,OnGround,Street,State,-32.268459,150.886169
0101000020E61000003FADA23F34D26240E17B7F83F62A40C0,05480,"Merriwa Road, East of Honey Lane",Merriwa Road,Merriwa Road,Golden Highway,East of Honey Lane,Sandy Hollow,2333,Muswellbrook,Hunter,50,Honey Lane,0000027,0190,B84,Trafficorder Tube Axlepair Counter,0,1,OnGround,Highway,State,-32.335648,150.568878
0101000020E6100000BD19355F25E3624029779FE3A34D40C0,05481,"Jerrys Plains Road, North of Mount Thorley Road",Jerrys Plains Road,Jerrys Plains Road,Golden Highway,North of Mount Thorley Road,Mount Thorley,2330,Singleton,Hunter,790,Mount Thorley Road,0000027,0065,B84,Trafficorder Tube Axlepair Counter,0,1,OnGround,Highway,State,-32.606564,151.098312
0101000020E6100000CFBBB1A030DB6240FB93F8DC093A40C0,05485,"Jerrys Plains Road, East of Edderton Road",Jerrys Plains Road,Jerrys Plains Road,Golden Highway,East of Edderton Road,Jerrys Plains,2330,Muswellbrook,Hunter,2350,Edderton Road,0000027,0110,B84,Trafficorder Tube Axlepair Counter,0,0,OnBridge,Highway,State,-32.453426,150.849686
0101000020E6100000A9A44E4013F6624031444E5FCF7340C0,05490,"Newcastle Road, North of Illoura Street",Newcastle Road,Newcastle Road,Newcastle Road,North of Illoura Street,Jesmond,2299,Newcastle,Hunter,20,Illoura Street,0000082,0120,A15,Trafficorder Tube Axlepair Counter,0,0,OnGround,Road,State,-32.904766,151.689850
0101000020E61000009A417C60C7F362405ABBED42737340C0,05496,"Newcastle Link Road, West of Minmi Road",Newcastle Link Road,Newcastle Link Road,Newcastle Link Road,West of Minmi Road,Cameron Park,2285,Lake Macquarie,Hunter,390,Minmi Road,0000082,0250,A15,Trafficorder Tube Axlepair Counter,0,0,OnGround,Road,Local,-32.901955,151.618088
0101000020E61000000A4B3CA0ECF26240551344DD078240C0,05506,"Excelsior Parade, West of Cary Street",Excelsior Parade,Excelsior Parade,Excelsior Parade,West of Cary Street,Toronto,2283,Lake Macquarie,Hunter,70,Cary Street,0000217,0190,B53,Trafficorder Tube Axlepair Counter,0,0,OnGround,Parade,State,-33.015865,151.591385
0101000020E6100000AFD172A007F262407FA5F3E1598440C0,05507,"Wangi Road, North of Dorrington Road",Wangi Road,Wangi Road,Wangi Road,North of Dorrington Road,Rathmines,2283,Lake Macquarie,Hunter,190,Dorrington Road,0000217,0160,B53,Trafficorder Tube Axlepair Counter,0,0,OnGround,Road,State,-33.033993,151.563431
0101000020E61000000000000008F06240FFFFFFDFC28A40C0,05510,"Macquarie Street, North of Newport Road",Macquarie Street,Main Road,Wamsley Street,North of Newport Road,Dora Creek,2264,Lake Macquarie,Hunter,20,Newport Road,0000217,0100,B53,Excel Ll,1,1,OnGround,Street,State,-33.0840721130371,151.5009765625
0101000020E6100000E23FDD4001EA62405D34643C4A6F40C0,05520,"Wollombi Road, South of Doyle Street",Wollombi Road,Wollombi Road,Wollombi Road,South of Doyle Street,Pelton,2325,Cessnock,Hunter,330,Doyle Street,0000181,1235,NULL,Trafficorder Tube Axlepair Counter,0,0,OnGround,Road,Regional,-32.869453,151.312653
0101000020E610000024ED461F73EB624005DF347D766A40C0,05522,"Maitland Road, West of Millfield Street",Maitland Road,Maitland Road,Maitland Road,West of Millfield Street,Cessnock,2325,Cessnock,Hunter,20,Millfield Street,0000588,0200,B68,Trafficorder Tube Axlepair Counter,0,0,OnGround,Road,State,-32.831741,151.357803
0101000020E61000005A7F4B007EEF6240FEF33460906840C0,05530,"Lang Street, West of Merthyr Street",Lang Street,Lang Street,Lang Street,West of Merthyr Street,Kurri Kurri,2327,Cessnock,Hunter,110,Merthyr Street,0000195,0100,NULL,Trafficorder Tube Axlepair Counter,0,0,OnGround,Street,State,-32.816906,151.484131
0101000020E6100000587380600EEA624004577902614740C0,05535,"Elderslie Road, West of Blind Creek Road",Elderslie Road,Elderslie Road,Elderslie Road,West of Blind Creek Road,Mitchells Flat,2330,Singleton,Hunter,220,Blind Creek Road,0000453,0020,NULL,Trafficorder Tube Axlepair Counter,0,1,OnGround,Road,Regional,-32.557648,151.314255
0101000020E6100000261AA4E029EB6240E38A8BA3726540C0,05540,"Wine Country Drive, North of Lomas Lane",Wine Country Drive,Wine Country Drive,Wine Country Drive,North of Lomas Lane,Nulkaba,2325,Cessnock,Hunter,90,Lomas Lane,0000220,0180,B82,Trafficorder Tube Axlepair Counter,0,1,OnGround,Drive,Local,-32.792561,151.348862
0101000020E6100000ACAA97DF69EB62408578245E9E6A40C0,05543,"Vincent Street, North of Edward Street",Vincent Street,Vincent Street,Vincent Street,North of Edward Street,Cessnock,2325,Cessnock,Hunter,60,Edward Street,0000220,0160,B82,Trafficorder Tube Axlepair Counter,0,0,OnGround,Street,State,-32.832958,151.356674
0101000020E61000005779026127F76240B9FB1C1F2D7640C0,05560,"Lambton Road, East of Bridges Road",Lambton Road,Lambton Road,Lambton Road,East of Bridges Road,Broadmeadow,2292,Newcastle,Hunter,10,Bridges Road,0000223,0020,NULL,Trafficorder Tube Axlepair Counter,0,0,OnGround,Road,Regional,-32.923252,151.723557
0101000020E6100000D4D347E00FF56240EA211ADD417840C0,05568,"Main Road, West of Kelton Street",Main Road,Main Road,Main Road,West of Kelton Street,Cardiff,2285,Lake Macquarie,Hunter,30,Kelton Street,0000223,0130,NULL,Trafficorder Tube Axlepair Counter,0,0,OnGround,Road,Regional,-32.939510,151.658188
0101000020E61000007E7214200AF562405B5B785E2A7840C0,05569,"Main Road, South of Sturt Road",Main Road,Main Road,Main Road,South of Sturt Road,Cardiff,2285,Lake Macquarie,Hunter,60,Sturt Road,0000527,0250,B89,Trafficorder Tube Axlepair Counter,0,0,OnGround,Road,State,-32.938793,151.657486
0101000020E6100000702711E1DFF46240F581E49D437740C0,05570,"Main Road, West of Alfred Street",Main Road,Main Road,Main Road,West of Alfred Street,Glendale,2285,Lake Macquarie,Hunter,90,Alfred Street,0000527,0270,B89,Trafficorder Tube Axlepair Counter,0,0,OnGround,Road,State,-32.931751,151.652329
0101000020E61000004B0169FF83F462409A95ED43DE7640C0,05571,"Main Road, East of Fairleigh Street",Main Road,Main Road,"Main.main Rd, Glendale",East of Fairleigh Street,Glendale,2285,Lake Macquarie,Hunter,70,Fairleigh Street,0000527,0280,B89,Trafficorder Loop Counter,1,0,OnGround,Road,State,-32.928658,151.641113
0101000020E6100000020F0C207CF36240B2B96A9E237640C0,05573,"George Booth Drive, West of Northville Drive",George Booth Drive,George Booth Drive,Main Road,West of Northville Drive,Edgeworth,2285,Lake Macquarie,Hunter,100,Northville Drive,0000527,0312,B89,Trafficorder Tube Axlepair Counter,0,0,OnGround,Road,State,-32.922962,151.608902
0101000020E6100000AB984A3F61F6624089D2DEE00B6940C0,05590,"Tomago Road, North of Old Punt Road",Tomago Road,Tomago Road,Cabbage Tree Road,North of Old Punt Road,Tomago,2322,Port Stephens,Hunter,180,Old Punt Road,0000302,0025,NULL,Trafficorder Tube Axlepair Counter,0,1,OnGround,Road,State,-32.820675,151.699371
0101000020E61000001590F63FC0FA624012DE1E84806840C0,05592,"Cabbage Tree Road, West of Lavis Lane",Cabbage Tree Road,Cabbage Tree Road,Cabbage Tree Road,West of Lavis Lane,Williamtown,2318,Port Stephens,Hunter,680,Lavis Lane,0000302,0010,NULL,Trafficorder Tube Axlepair Counter,0,1,OnGround,Road,State,-32.816422,151.835968
0101000020E61000006BF1290046F86240AA656B7D917640C0,05593,"Stewart Avenue, East of Parry Street",Stewart Avenue,Stewart Avenue,Stewart Avenue,East of Parry Street,Newcastle West,2302,Newcastle,Hunter,50,Parry Street,0000010,1535,A43,Trafficorder Tube Axlepair Counter,0,0,OnGround,Avenue,State,-32.926315,151.758545
0101000020E610000066BB421FACF662405001309E417D40C0,05609,"Dudley Road, South of Bulls Garden Road",Dudley Road,Dudley Road,Dudley Road,South of Bulls Garden Road,Whitebridge,2290,Lake Macquarie,Hunter,110,Bulls Garden Road,0000325,0080,NULL,Trafficorder Tube Axlepair Counter,0,0,OnGround,Road,Regional,-32.978565,151.708511
0101000020E61000007D5D86FFF4F362404A438D42927B40C0,05616,"The Esplanade, West of Albert Street",The Esplanade,The Esplanade,The Esplanade,West of Albert Street,Speers Point,2284,Lake Macquarie,Hunter,100,Albert Street,0000674,0170,B57,Trafficorder Tube Axlepair Counter,0,0,OnGround,,State,-32.965401,151.623657
0101000020E6100000D6E253008CF76240B5FB5580EF7240C0,05622,"Hanbury Street, East of Waratah Street",Hanbury Street,Hanbury Street,Hanbury Street,East of Waratah Street,Mayfield,2304,Newcastle,Hunter,20,Waratah Street,0000326,0130,B63,Trafficorder Tube Axlepair Counter,0,0,OnGround,Street,State,-32.897934,151.735840
0101000020E61000007D5A457FE8F162406EDC627E6EA240C0,05645,"Main Road, East of Brisbane Street",Main Road,Main Road,Noraville Road,East of Brisbane Street,Noraville,2263,Wyong,Hunter,70,Brisbane Street,0000509,0060,B70,Trafficorder Tube Axlepair Counter,0,0,OnGround,Road,State,-33.268997,151.559631
0101000020E6100000C991CEC048F86240AC014A438D6040C0,05647,"Richardson Road, East of Adelaide Street",Richardson Road,Richardson Road,Richardson Road,East of Adelaide Street,Raymond Terrace,2324,Port Stephens,Hunter,50,Adelaide Street,0000104,0117,NULL,Trafficorder Tube Axlepair Counter,0,0,OnGround,Road,State,-32.754311,151.758881
0101000020E6100000F7C9518028FB6240CC7C073F716240C0,05648,"Richardson Road, West of Medowie Road",Richardson Road,Richardson Road,Richardson Road,West of Medowie Road,Campvale,2318,Port Stephens,Hunter,1100,Medowie Road,0000104,0117,NULL,Trafficorder Tube Axlepair Counter,0,1,OnGround,Road,State,-32.769081,151.848694
0101000020E6100000C77F812040FB624038A11001876640C0,05650,"Medowie Road, South of Townsend Avenue",Medowie Road,Medowie Road,Medowie Road,South of Townsend Avenue,Williamtown,2318,Port Stephens,Hunter,100,Townsend Avenue,0000518,0010,NULL,Trafficorder Tube Axlepair Counter,0,1,OnGround,Road,Regional,-32.800995,151.851578
0101000020E6100000EE96E480DDFA6240177E703E755640C0,05652,"Medowie Road, South of Euwylong Close",Medowie Road,Medowie Road,Medowie Road,South of Euwylong Close,Ferodale,2318,Port Stephens,Hunter,80,Euwylong Close,0000518,0030,NULL,Trafficorder Tube Axlepair Counter,0,1,OnGround,Road,Regional,-32.675453,151.839539
0101000020E6100000C24CDBBFB2F462408D96033DD47C40C0,05657,"King Street, East of John Street",King Street,King Street,King Street,East of John Street,Warners Bay,2282,Lake Macquarie,Hunter,20,John Street,0000527,0200,B89,Trafficorder Tube Axlepair Counter,0,0,OnGround,Street,State,-32.975227,151.646820
0101000020E61000000533A6600DF66240A8380EBC5A7840C0,05674,"Carnley Avenue, East of Charlestown Road",Carnley Avenue,Carnley Avenue,Carnley Avenue,East of Charlestown Road,Kotara,2289,Newcastle,Hunter,90,Charlestown Road,0000603,0030,NULL,Trafficorder Tube Axlepair Counter,0,0,OnGround,Avenue,Regional,-32.940269,151.689133
0101000020E610000064B2B8FF48F662408C118942CB7240C0,05675,"University Drive, East of Main Road",University Drive,University Drive,University Drive,East of Main Road,Callaghan,2308,Newcastle,Hunter,130,Main Road,0000605,0046,NULL,Trafficorder Tube Axlepair Counter,0,0,OnGround,Drive,Local,-32.896828,151.696411
0101000020E6100000A359D93EE4F6624012A27C410B7740C0,05677,"Bridges Road, North of Musgrove Street",Bridges Road,Bridges Road,Bridges Road,North of Musgrove Street,New Lambton,2305,Newcastle,Hunter,40,Musgrove Street,0000326,0026,B63,Trafficorder Tube Axlepair Counter,0,0,OnGround,Road,State,-32.930031,151.715362
0101000020E61000001CB7989F9BF46240ACE0B721C66740C0,05682,"John Renshaw Drive, South of New England Highway",John Renshaw Drive,John Renshaw Drive,John Renshaw Drive,South of New England Highway,Beresfield,2322,Newcastle,Hunter,340,New England Highway,0000588,0010,A1,Trafficorder Tube Axlepair Counter,0,0,OnGround,Drive,State,-32.810734,151.643997
0101000020E61000005455682016F46240F0694E5E646840C0,05683,"John Renshaw Drive, West of Kullara Close",John Renshaw Drive,John Renshaw Drive,John Renshaw Drive,West of Kullara Close,Beresfield,2322,Newcastle,Hunter,570,Kullara Close,0000588,0016,B68,Trafficorder Loop Counter,1,0,OnGround,Drive,State,-32.815563,151.627701
0101000020E61000003AB01C2183F5624063B5F97FD57740C0,05692,"Wallsend Road, West of Main Road",Wallsend Road,Wallsend Road,Main Road,West of Main Road,Cardiff Heights,2285,Lake Macquarie,Hunter,0,Main Road,0000223,0120,NULL,Trafficorder Tube Axlepair Counter,0,0,OnGround,Road,Regional,-32.936203,151.672257
0101000020E610000061A6ED5FD9F5624072FA7ABE667940C0,05693,"Myall Road, West of Prospect Road",Myall Road,Myall Road,Myall Road,West of Prospect Road,Garden Suburb,2289,Lake Macquarie,Hunter,100,Prospect Road,0007769,0010,NULL,Trafficorder Tube Axlepair Counter,0,0,OnGround,Road,Regional,-32.948448,151.682785
0101000020E61000001AA88C7F1FF16240778192020B6A40C0,05694,"John Renshaw Drive, East of Hunter Expressway",John Renshaw Drive,John Renshaw Drive,John Renshaw Drive,East of Hunter Expressway,Buchanan,2323,Cessnock,Hunter,400,Hunter Expressway,0000588,0035,B68,Trafficorder Tube Axlepair Counter,0,1,OnGround,Drive,Local,-32.828461,151.535095
0101000020E610000019AE0E8038E9624012691B7FA2B640C0,05781,"Central Coast Highway, South of Wisemans Ferry Road",Central Coast Highway,Central Coast Highway,Central Coast Highway,South of Wisemans Ferry Road,Somersby,2250,Gosford,Hunter,100,Wisemans Ferry Road,0000030,0930,A49,Trafficorder Tube Axlepair Counter,0,0,OnGround,Highway,State,-33.426834,151.288147
0101000020E6100000B6F5D37F56EA6240B41F2922C3B640C0,05786,"Central Coast Highway, East of Yallambee Avenue",Central Coast Highway,Central Coast Highway,Central Coast Highway,East of Yallambee Avenue,West Gosford,2250,Gosford,Hunter,130,Yallambee Avenue,0000030,1000,A49,Trafficorder Tube Axlepair Counter,0,0,OnBridge,Highway,State,-33.427830,151.323059
0101000020E6100000B0C56E9FD5EA6240DD274701A2B640C0,05788,"Donnison Street, South of Showground Road",Donnison Street,Donnison Street,Donnison Street,South of Showground Road,Gosford,2250,Gosford,Hunter,30,Showground Road,-10,-10,NULL,Trafficorder Tube Axlepair Counter,0,0,OnBridge,Street,Local,-33.426819,151.338577
0101000020E610000089CF9D60FFEA624004E275FD82B540C0,05793,"Mann Street, North of Racecourse Road",Mann Street,Mann Street,Pacific Highway,North of Racecourse Road,North Gosford,2250,Gosford,Hunter,110,Racecourse Road,0007757,0020,NULL,Trafficorder Tube Axlepair Counter,0,0,OnGround,Highway,Regional,-33.418060,151.343674
0101000020E61000007A54FCDF11EB6240F46C567DAEB240C0,05796,"Pacific Highway, West of Berrys Head Road",Pacific Highway,Pacific Highway,"Pacific.pacific Highway, Narara",West of Berrys Head Road,Wyoming,2250,Gosford,Hunter,20,Berrys Head Road,0000010,1055,NULL,Trafficorder Loop Counter,1,0,OnGround,Highway,State,-33.395950,151.345932
0101000020E6100000962023A042E96240BDE3141DC9AF40C0,05813,"Wisemans Ferry Road, East of Elwins Road",Wisemans Ferry Road,Wisemans Ferry Road,Wisemans Ferry Road,East of Elwins Road,Somersby,2250,Gosford,Hunter,80,Elwins Road,1840225,1030,NULL,Trafficorder Tube Axlepair Counter,0,1,OnGround,Road,Local,-33.373325,151.289383
0101000020E610000086AB0320EEF162402096CD1C92A240C0,05838,"Wilfred Barrett Drive, North of Bungary Road",Wilfred Barrett Drive,Wilfred Barrett Drive,Wilfred Barrett Drive,North of Bungary Road,Norah Head,2263,Wyong,Hunter,100,Bungary Road,0000030,2210,A49,Trafficorder Tube Axlepair Counter,0,0,OnGround,Drive,State,-33.270084,151.560318
0101000020E610000087C3D2C00FF062406A85E97B0DAB40C0,05839,"Wilfred Barrett Drive, North of Dunleith Street",Wilfred Barrett Drive,Wilfred Barrett Drive,Wilfred Barrett Drive,North of Dunleith Street,The Entrance North,2261,Wyong,Hunter,90,Dunleith Street,0000030,2210,A49,Trafficorder Tube Axlepair Counter,0,0,OnBridge,Drive,State,-33.336349,151.501923
0101000020E6100000F9BA0CFFE9E66240AE0D15E3FC5140C0,05841,"Mitchell Line Of Road, West of New Freugh Lane",Mitchell Line Of Road,Mitchell Line Of Road,Golden Highway,West of New Freugh Lane,Singleton Military Area,2331,Singleton,Hunter,1650,New Freugh Lane,0000027,0010,B84,Trafficorder Tube Axlepair Counter,0,1,OnGround,Highway,State,-32.640530,151.216064
0101000020E61000008ACC5CE072F76240DB334B02D47040C0,05842,"Tourle Street, East of Mcintosh Drive",Tourle Street,Tourle Street,Tourle Street,East of Mcintosh Drive,Mayfield West,2304,Newcastle,Hunter,310,Mcintosh Drive,0000108,0015,B63,Excel Lpl,1,1,OnGround,Street,State,-32.881470,151.732773
0101000020E6100000BB287AE063F36240F0517FBDC24E40C0,05849,"Tocal Road, West of Paterson Road",Tocal Road,Tocal Road,Tocal Road,West of Paterson Road,Tocal,2421,Dungog,Hunter,490,Paterson Road,0000101,0050,NULL,Trafficorder Tube Axlepair Counter,0,1,OnGround,Road,Regional,-32.615318,151.605942
0101000020E6100000AB984A3FE1F4624082AB3C81B07B40C0,05856,"Macquarie Road, North of Hillsborough Road",Macquarie Road,Macquarie Road,Macquarie Road,North of Hillsborough Road,Lakelands,2282,Lake Macquarie,Hunter,40,Hillsborough Road,0000527,0220,B89,Trafficorder Tube Axlepair Counter,0,0,OnGround,Road,State,-32.966324,151.652496
0101000020E6100000C0401020C3F66240FDF675E09C7740C0,05864,"Freyberg Street, South of Knight Street",Freyberg Street,Freyberg Street,Carnley Avenue,South of Knight Street,New Lambton,2305,Newcastle,Hunter,80,Knight Street,0000603,0020,NULL,Trafficorder Tube Axlepair Counter,0,0,OnGround,Avenue,Regional,-32.934475,151.711319
0101000020E6100000280B5F5FEBF46240986BD102B47B40C0,05865,"Hillsborough Road, East of Macquarie Road",Hillsborough Road,Hillsborough Road,Hillsborough Road,East of Macquarie Road,Warners Bay,2282,Lake Macquarie,Hunter,120,Macquarie Road,0000674,0150,B57,Trafficorder Tube Axlepair Counter,0,0,OnGround,Road,State,-32.966431,151.653732
0101000020E6100000838769DF5CF8624071CADC7C237440C0,05873,"Elizabeth Street, East of Industrial Drive",Elizabeth Street,Elizabeth Street,Elizabeth Street,East of Industrial Drive,Carrington,2294,Newcastle,Hunter,130,Industrial Drive,0007772,0010,NULL,Trafficorder Tube Axlepair Counter,0,0,OnGround,Street,Regional,-32.907333,151.761337
0101000020E6100000A77A32FFE8F6624043FE99417C7440C0,05903,"Griffiths Road, South of Acacia Avenue",Griffiths Road,Griffiths Road,Griffiths Road,South of Acacia Avenue,Lambton,2299,Newcastle,Hunter,70,Acacia Avenue,0000082,0090,A15,Trafficorder Tube Axlepair Counter,0,0,OnGround,Road,State,-32.910042,151.715942
